{"type": "FeatureCollection", "generator": "overpass-ide", "copyright": "The data included in this document is from www.openstreetmap.org. The data is made available under ODbL.", "timestamp": "2023-07-04T20:07:16Z", "features": [{"type": "Feature", "properties": {"@id": "node/340736440", "addr:city": "R\u00f8dovre", "addr:country": "DK", "addr:housenumber": "4", "addr:municipality": "R\u00f8dovre", "addr:postcode": "2610", "addr:street": "Skodborgvej", "osak:identifier": "0a3f507d-96cc-32b8-e044-0003ba298018", "source": "Danmarks Adresseregister"}, "geometry": {"type": "Point", "coordinates": [12.463792, 55.669053]}, "id": "node/340736440"}, {"type": "Feature", "properties": {"@id": "node/340567469", "addr:city": "K\u00f8benhavn \u00d8", "addr:country": "DK", "addr:housenumber": "58C", "addr:municipality": "K\u00f8benhavn", "addr:postcode": "2100", "addr:street": "Willemoesgade", "osak:identifier": "0a3f507b-2b6d-32b8-e044-0003ba298018", "source": "Danmarks Adresseregister"}, "geometry": {"type": "Point", "coordinates": [12.58631, 55.698281]}, "id": "node/340567469"}, {"type": "Feature", "properties": {"@id": "node/340761543", "addr:city": "Kastrup", "addr:country": "DK", "addr:housenumber": "15", "addr:municipality": "T\u00e5rnby", "addr:postcode": "2770", "addr:street": "Kastrupg\u00e5rdvej", "osak:identifier": "0a3f507d-f791-32b8-e044-0003ba298018", "source": "Danmarks Adresseregister"}, "geometry": {"type": "Point", "coordinates": [12.637883, 55.634062]}, "id": "node/340761543"}, {"type": "Feature", "properties": {"@id": "node/340564269", "addr:city": "K\u00f8benhavn V", "addr:country": "DK", "addr:housenumber": "91C", "addr:municipality": "K\u00f8benhavn", "addr:postcode": "1620", "addr:street": "Vesterbrogade", "osak:identifier": "0a3f507b-23b7-32b8-e044-0003ba298018", "source": "Danmarks Adresseregister"}, "geometry": {"type": "Point", "coordinates": [12.54725, 55.671733]}, "id": "node/340564269"}, {"type": "Feature", "properties": {"@id": "node/340736633", "addr:city": "R\u00f8dovre", "addr:country": "DK", "addr:housenumber": "195", "addr:municipality": "R\u00f8dovre", "addr:postcode": "2610", "addr:street": "Slotsherrens Have", "osak:identifier": "0a3f507d-977e-32b8-e044-0003ba298018", "source": "Danmarks Adresseregister"}, "geometry": {"type": "Point", "coordinates": [12.457852, 55.703346]}, "id": "node/340736633"}, {"type": "Feature", "properties": {"@id": "node/340738283", "addr:city": "R\u00f8dovre", "addr:country": "DK", "addr:housenumber": "16", "addr:municipality": "R\u00f8dovre", "addr:postcode": "2610", "addr:street": "Viemosevej", "osak:identifier": "0a3f507d-9df5-32b8-e044-0003ba298018", "source": "Danmarks Adresseregister"}, "geometry": {"type": "Point", "coordinates": [12.447046, 55.707534]}, "id": "node/340738283"}, {"type": "Feature", "properties": {"@id": "node/340520729", "addr:city": "K\u00f8benhavn S", "addr:country": "DK", "addr:housenumber": "65A", "addr:municipality": "K\u00f8benhavn", "addr:postcode": "2300", "addr:street": "Italiensvej", "osak:identifier": "0a3f507a-9c5d-32b8-e044-0003ba298018", "source": "Danmarks Adresseregister"}, "geometry": {"type": "Point", "coordinates": [12.631914, 55.65678]}, "id": "node/340520729"}, {"type": "Feature", "properties": {"@id": "node/340650094", "addr:city": "S\u00f8borg", "addr:country": "DK", "addr:housenumber": "46", "addr:municipality": "Gladsaxe", "addr:postcode": "2860", "addr:street": "Ved Kags\u00e5", "osak:identifier": "0a3f507c-547f-32b8-e044-0003ba298018", "source": "Danmarks Adresseregister"}, "geometry": {"type": "Point", "coordinates": [12.451623, 55.735635]}, "id": "node/340650094"}, {"type": "Feature", "properties": {"@id": "node/340578378", "addr:city": "Frederiksberg", "addr:country": "DK", "addr:housenumber": "8", "addr:municipality": "Frederiksberg", "addr:postcode": "2000", "addr:street": "L\u00e6rkeskellet", "osak:identifier": "0a3f507b-5266-32b8-e044-0003ba298018", "source": "Danmarks Adresseregister"}, "geometry": {"type": "Point", "coordinates": [12.496457, 55.671803]}, "id": "node/340578378"}, {"type": "Feature", "properties": {"@id": "node/340538745", "addr:city": "K\u00f8benhavn NV", "addr:country": "DK", "addr:housenumber": "20", "addr:municipality": "K\u00f8benhavn", "addr:postcode": "2400", "addr:street": "Peter Ipsens All\u00e9", "osak:identifier": "0a3f507a-da16-32b8-e044-0003ba298018", "source": "Danmarks Adresseregister"}, "geometry": {"type": "Point", "coordinates": [12.526029, 55.706709]}, "id": "node/340538745"}, {"type": "Feature", "properties": {"@id": "node/3508373032", "addr:city": "Kastrup", "addr:country": "DK", "addr:housenumber": "147", "addr:municipality": "K\u00f8benhavn", "addr:postcode": "2770", "addr:street": "Haveforeningen S\u00f8ndervang", "osak:identifier": "55d04b7b-6d9b-4007-b23b-2bda61b52021", "source": "Danmarks Adresseregister"}, "geometry": {"type": "Point", "coordinates": [12.59139, 55.624744]}, "id": "node/3508373032"}, {"type": "Feature", "properties": {"@id": "node/3728289402", "addr:city": "K\u00f8benhavn NV", "addr:country": "DK", "addr:housenumber": "2R", "addr:municipality": "K\u00f8benhavn", "addr:postcode": "2400", "addr:street": "Dortheavej", "osak:identifier": "ba8fcd98-82d9-4a5f-849e-40884de2fd80", "source": "Danmarks Adresseregister"}, "geometry": {"type": "Point", "coordinates": [12.529426, 55.707979]}, "id": "node/3728289402"}, {"type": "Feature", "properties": {"@id": "node/340484089", "addr:city": "K\u00f8benhavn K", "addr:country": "DK", "addr:housenumber": "20A", "addr:municipality": "K\u00f8benhavn", "addr:postcode": "1066", "addr:street": "Admiralgade", "osak:identifier": "0a3f507a-3719-32b8-e044-0003ba298018", "source": "Danmarks Adresseregister"}, "geometry": {"type": "Point", "coordinates": [12.581562, 55.677913]}, "id": "node/340484089"}, {"type": "Feature", "properties": {"@id": "node/340687776", "addr:city": "Hvidovre", "addr:country": "DK", "addr:housenumber": "29", "addr:municipality": "Hvidovre", "addr:postcode": "2650", "addr:street": "Strandlyst Alle", "osak:identifier": "0a3f507c-e2a3-32b8-e044-0003ba298018", "source": "Danmarks Adresseregister"}, "geometry": {"type": "Point", "coordinates": [12.471581, 55.621325]}, "id": "node/340687776"}, {"type": "Feature", "properties": {"@id": "node/340527179", "addr:city": "K\u00f8benhavn K", "addr:country": "DK", "addr:housenumber": "11", "addr:municipality": "K\u00f8benhavn", "addr:postcode": "1119", "addr:street": "Landem\u00e6rket", "osak:identifier": "0a3f507a-b2c0-32b8-e044-0003ba298018", "source": "Danmarks Adresseregister"}, "geometry": {"type": "Point", "coordinates": [12.576096, 55.681934]}, "id": "node/340527179"}, {"type": "Feature", "properties": {"@id": "node/340555002", "addr:city": "K\u00f8benhavn N", "addr:country": "DK", "addr:housenumber": "99", "addr:municipality": "K\u00f8benhavn", "addr:postcode": "2200", "addr:street": "Thorsgade", "osak:identifier": "0a3f507b-0e5c-32b8-e044-0003ba298018", "source": "Danmarks Adresseregister"}, "geometry": {"type": "Point", "coordinates": [12.552821, 55.699496]}, "id": "node/340555002"}, {"type": "Feature", "properties": {"@id": "node/5442691349", "addr:city": "R\u00f8dovre", "addr:country": "DK", "addr:housenumber": "29", "addr:municipality": "R\u00f8dovre", "addr:postcode": "2610", "addr:street": "Islev Have", "osak:identifier": "e9de95c0-9540-48ad-870b-0daa8acb1349", "source": "Danmarks Adresseregister"}, "geometry": {"type": "Point", "coordinates": [12.433943, 55.706291]}, "id": "node/5442691349"}, {"type": "Feature", "properties": {"@id": "node/3464204530", "addr:city": "Kastrup", "addr:country": "DK", "addr:housenumber": "130", "addr:municipality": "K\u00f8benhavn", "addr:postcode": "2770", "addr:street": "Haveforeningen Stjernelund", "osak:identifier": "3d6a855a-2545-4448-8d46-b1464d267a87", "source": "Danmarks Adresseregister"}, "geometry": {"type": "Point", "coordinates": [12.582152, 55.626043]}, "id": "node/3464204530"}, {"type": "Feature", "properties": {"@id": "node/340663325", "addr:city": "Herlev", "addr:country": "DK", "addr:housenumber": "48", "addr:municipality": "Herlev", "addr:postcode": "2730", "addr:street": "Mosebyvej", "osak:identifier": "0a3f507c-8653-32b8-e044-0003ba298018", "source": "Danmarks Adresseregister"}, "geometry": {"type": "Point", "coordinates": [12.422371, 55.747668]}, "id": "node/340663325"}, {"type": "Feature", "properties": {"@id": "node/340546607", "addr:city": "K\u00f8benhavn V", "addr:country": "DK", "addr:housenumber": "9", "addr:municipality": "K\u00f8benhavn", "addr:postcode": "1715", "addr:street": "Slagtehusgade", "osak:identifier": "0a3f507a-f5cf-32b8-e044-0003ba298018", "source": "Danmarks Adresseregister"}, "geometry": {"type": "Point", "coordinates": [12.560896, 55.668846]}, "id": "node/340546607"}, {"type": "Feature", "properties": {"@id": "node/340734999", "addr:city": "R\u00f8dovre", "addr:country": "DK", "addr:housenumber": "41", "addr:municipality": "R\u00f8dovre", "addr:postcode": "2610", "addr:street": "R\u00f8dager Alle", "osak:identifier": "0a3f507d-9195-32b8-e044-0003ba298018", "source": "Danmarks Adresseregister"}, "geometry": {"type": "Point", "coordinates": [12.456912, 55.675561]}, "id": "node/340734999"}, {"type": "Feature", "properties": {"@id": "node/340490524", "addr:city": "K\u00f8benhavn NV", "addr:country": "DK", "addr:housenumber": "6", "addr:municipality": "K\u00f8benhavn", "addr:postcode": "2400", "addr:street": "Bisiddervej", "osak:identifier": "0a3f507a-4578-32b8-e044-0003ba298018", "source": "Danmarks Adresseregister"}, "geometry": {"type": "Point", "coordinates": [12.532805, 55.706288]}, "id": "node/340490524"}, {"type": "Feature", "properties": {"@id": "node/3464223665", "addr:city": "K\u00f8benhavn SV", "addr:country": "DK", "addr:housenumber": "65", "addr:municipality": "K\u00f8benhavn", "addr:postcode": "2450", "addr:street": "Hf. Bergmannshave", "osak:identifier": "c66489a3-c13a-4016-9179-4d7a188a1288", "source": "Danmarks Adresseregister"}, "geometry": {"type": "Point", "coordinates": [12.514809, 55.640152]}, "id": "node/3464223665"}, {"type": "Feature", "properties": {"@id": "node/3185299516", "addr:city": "K\u00f8benhavn S", "addr:country": "DK", "addr:housenumber": "148B", "addr:municipality": "K\u00f8benhavn", "addr:postcode": "2300", "addr:street": "Amager Strandvej", "osak:identifier": "236d4c58-c326-46ed-9541-23ba946ec79c", "source": "Danmarks Adresseregister"}, "geometry": {"type": "Point", "coordinates": [12.633147, 55.658079]}, "id": "node/3185299516"}, {"type": "Feature", "properties": {"@id": "node/340738434", "addr:city": "R\u00f8dovre", "addr:country": "DK", "addr:housenumber": "14", "addr:municipality": "R\u00f8dovre", "addr:postcode": "2610", "addr:street": "Voldumvej", "osak:identifier": "0a3f507d-9e8c-32b8-e044-0003ba298018", "source": "Danmarks Adresseregister"}, "geometry": {"type": "Point", "coordinates": [12.466797, 55.684389]}, "id": "node/340738434"}, {"type": "Feature", "properties": {"@id": "node/340732823", "addr:city": "R\u00f8dovre", "addr:country": "DK", "addr:housenumber": "503", "addr:municipality": "R\u00f8dovre", "addr:postcode": "2610", "addr:street": "Lucernevej", "osak:identifier": "0a3f507d-89f7-32b8-e044-0003ba298018", "source": "Danmarks Adresseregister"}, "geometry": {"type": "Point", "coordinates": [12.437394, 55.682601]}, "id": "node/340732823"}, {"type": "Feature", "properties": {"@id": "node/340570718", "addr:city": "Vanl\u00f8se", "addr:country": "DK", "addr:housenumber": "145", "addr:municipality": "K\u00f8benhavn", "addr:postcode": "2720", "addr:street": "\u00c5lekistevej", "osak:identifier": "0a3f507b-36df-32b8-e044-0003ba298018", "source": "Danmarks Adresseregister"}, "geometry": {"type": "Point", "coordinates": [12.48177, 55.688294]}, "id": "node/340570718"}, {"type": "Feature", "properties": {"@id": "node/340485290", "addr:city": "K\u00f8benhavn V", "addr:country": "DK", "addr:housenumber": "7", "addr:municipality": "K\u00f8benhavn", "addr:postcode": "1764", "addr:street": "Alsgade", "osak:identifier": "0a3f507a-3899-32b8-e044-0003ba298018", "source": "Danmarks Adresseregister"}, "geometry": {"type": "Point", "coordinates": [12.541218, 55.664816]}, "id": "node/340485290"}, {"type": "Feature", "properties": {"@id": "node/340568453", "addr:city": "K\u00f8benhavn \u00d8", "addr:country": "DK", "addr:housenumber": "28", "addr:municipality": "K\u00f8benhavn", "addr:postcode": "2100", "addr:street": "\u00c6bel\u00f8gade", "osak:identifier": "0a3f507b-2edd-32b8-e044-0003ba298018", "source": "Danmarks Adresseregister"}, "geometry": {"type": "Point", "coordinates": [12.561477, 55.712333]}, "id": "node/340568453"}, {"type": "Feature", "properties": {"@id": "node/340689935", "addr:city": "Hvidovre", "addr:country": "DK", "addr:housenumber": "6", "addr:municipality": "Hvidovre", "addr:postcode": "2650", "addr:street": "William Boothsvej", "osak:identifier": "0a3f507c-e9c0-32b8-e044-0003ba298018", "source": "Danmarks Adresseregister"}, "geometry": {"type": "Point", "coordinates": [12.48843, 55.634811]}, "id": "node/340689935"}, {"type": "Feature", "properties": {"@id": "node/340573175", "addr:city": "Frederiksberg C", "addr:country": "DK", "addr:housenumber": "22", "addr:municipality": "Frederiksberg", "addr:postcode": "1814", "addr:street": "Carit Etlars Vej", "osak:identifier": "0a3f507b-4236-32b8-e044-0003ba298018", "source": "Danmarks Adresseregister"}, "geometry": {"type": "Point", "coordinates": [12.540667, 55.671566]}, "id": "node/340573175"}, {"type": "Feature", "properties": {"@id": "node/7264332093", "addr:city": "K\u00f8benhavn SV", "addr:country": "DK", "addr:housenumber": "3", "addr:municipality": "K\u00f8benhavn", "addr:postcode": "2450", "addr:street": "Sydl\u00f8bsvej", "osak:identifier": "0a3f507b-085a-32b8-e044-0003ba298018", "source": "Danmarks Adresseregister"}, "geometry": {"type": "Point", "coordinates": [12.540783, 55.63674]}, "id": "node/7264332093"}, {"type": "Feature", "properties": {"@id": "node/340596866", "addr:city": "Br\u00f8ndby", "addr:country": "DK", "addr:housenumber": "57", "addr:municipality": "Br\u00f8ndby", "addr:postcode": "2605", "addr:street": "Bredager", "osak:identifier": "0a3f507b-95e5-32b8-e044-0003ba298018", "source": "Danmarks Adresseregister"}, "geometry": {"type": "Point", "coordinates": [12.446915, 55.66321]}, "id": "node/340596866"}, {"type": "Feature", "properties": {"@id": "node/340612215", "addr:city": "Hellerup", "addr:country": "DK", "addr:housenumber": "34A", "addr:municipality": "Gentofte", "addr:postcode": "2900", "addr:street": "A.N. Hansens Alle", "osak:identifier": "0a3f507b-cddc-32b8-e044-0003ba298018", "source": "Danmarks Adresseregister"}, "geometry": {"type": "Point", "coordinates": [12.581383, 55.735947]}, "id": "node/340612215"}, {"type": "Feature", "properties": {"@id": "node/731298913", "addr:city": "K\u00f8benhavn S", "addr:country": "DK", "addr:housenumber": "50", "addr:municipality": "K\u00f8benhavn", "addr:postcode": "2300", "addr:street": "Robert Jacobsens Vej", "osak:identifier": "3cae7253-08ba-0f90-e044-0003ba298018", "source": "Danmarks Adresseregister"}, "geometry": {"type": "Point", "coordinates": [12.572535, 55.619342]}, "id": "node/731298913"}, {"type": "Feature", "properties": {"@id": "node/1431529736", "addr:city": "S\u00f8borg", "addr:country": "DK", "addr:housenumber": "80B", "addr:municipality": "Gladsaxe", "addr:postcode": "2860", "addr:street": "Gyngemose Parkvej", "osak:identifier": "38c95fd4-29e2-483d-a093-b32e48e70229", "source": "Danmarks Adresseregister"}, "geometry": {"type": "Point", "coordinates": [12.478663, 55.727737]}, "id": "node/1431529736"}, {"type": "Feature", "properties": {"@id": "node/340570077", "addr:city": "Vanl\u00f8se", "addr:country": "DK", "addr:housenumber": "2", "addr:municipality": "K\u00f8benhavn", "addr:postcode": "2720", "addr:street": "\u00c5dalsvej", "osak:identifier": "0a3f507b-3535-32b8-e044-0003ba298018", "source": "Danmarks Adresseregister"}, "geometry": {"type": "Point", "coordinates": [12.502284, 55.689157]}, "id": "node/340570077"}, {"type": "Feature", "properties": {"@id": "node/3890860452", "addr:city": "R\u00f8dovre", "addr:country": "DK", "addr:housenumber": "18", "addr:municipality": "R\u00f8dovre", "addr:postcode": "2610", "addr:street": "Veststien", "osak:identifier": "ed74b826-f327-431e-bcd7-f478f7bbed0f", "source": "Danmarks Adresseregister"}, "geometry": {"type": "Point", "coordinates": [12.431687, 55.708642]}, "id": "node/3890860452"}, {"type": "Feature", "properties": {"@id": "node/340513674", "addr:city": "Valby", "addr:country": "DK", "addr:housenumber": "75", "addr:municipality": "K\u00f8benhavn", "addr:postcode": "2500", "addr:street": "Heldbovej", "osak:identifier": "0a3f507a-8a17-32b8-e044-0003ba298018", "source": "Danmarks Adresseregister"}, "geometry": {"type": "Point", "coordinates": [12.482033, 55.656915]}, "id": "node/340513674"}, {"type": "Feature", "properties": {"@id": "node/340731410", "addr:city": "R\u00f8dovre", "addr:country": "DK", "addr:housenumber": "197", "addr:municipality": "R\u00f8dovre", "addr:postcode": "2610", "addr:street": "Juelsmindevej", "osak:identifier": "0a3f507d-847c-32b8-e044-0003ba298018", "source": "Danmarks Adresseregister"}, "geometry": {"type": "Point", "coordinates": [12.456329, 55.69534]}, "id": "node/340731410"}, {"type": "Feature", "properties": {"@id": "node/340685868", "addr:city": "Hvidovre", "addr:country": "DK", "addr:housenumber": "135", "addr:municipality": "Hvidovre", "addr:postcode": "2650", "addr:street": "Pr\u00e6stemosen", "osak:identifier": "0a3f507c-db5c-32b8-e044-0003ba298018", "source": "Danmarks Adresseregister"}, "geometry": {"type": "Point", "coordinates": [12.468482, 55.655995]}, "id": "node/340685868"}, {"type": "Feature", "properties": {"@id": "node/340573610", "addr:city": "Frederiksberg C", "addr:country": "DK", "addr:housenumber": "16", "addr:municipality": "Frederiksberg", "addr:postcode": "1955", "addr:street": "Doktor Abildgaards Alle", "osak:identifier": "0a3f507b-4374-32b8-e044-0003ba298018", "source": "Danmarks Adresseregister"}, "geometry": {"type": "Point", "coordinates": [12.539343, 55.682894]}, "id": "node/340573610"}, {"type": "Feature", "properties": {"@id": "node/340525789", "addr:city": "Vanl\u00f8se", "addr:country": "DK", "addr:housenumber": "15", "addr:municipality": "K\u00f8benhavn", "addr:postcode": "2720", "addr:street": "Krogebjerg", "osak:identifier": "0a3f507a-aee5-32b8-e044-0003ba298018", "source": "Danmarks Adresseregister"}, "geometry": {"type": "Point", "coordinates": [12.470952, 55.690526]}, "id": "node/340525789"}, {"type": "Feature", "properties": {"@id": "node/7264295190", "addr:city": "Frederiksberg C", "addr:country": "DK", "addr:housenumber": "22", "addr:municipality": "Frederiksberg", "addr:postcode": "1970", "addr:street": "Rosen\u00f8rns Alle", "osak:identifier": "0a3f507b-59d0-32b8-e044-0003ba298018", "source": "Danmarks Adresseregister"}, "geometry": {"type": "Point", "coordinates": [12.552526, 55.682216]}, "id": "node/7264295190"}, {"type": "Feature", "properties": {"@id": "node/5786859853", "addr:city": "K\u00f8benhavn N", "addr:country": "DK", "addr:housenumber": "25", "addr:municipality": "K\u00f8benhavn", "addr:postcode": "2200", "addr:street": "Borgmestervangen", "osak:identifier": "fec46826-0c1f-4396-b168-bb5e57d3fa77", "source": "Danmarks Adresseregister"}, "geometry": {"type": "Point", "coordinates": [12.539832, 55.702677]}, "id": "node/5786859853"}, {"type": "Feature", "properties": {"@id": "node/340664450", "addr:city": "Herlev", "addr:country": "DK", "addr:housenumber": "22", "addr:municipality": "Herlev", "addr:postcode": "2730", "addr:street": "R\u00e5havevej", "osak:identifier": "0a3f507c-8aa8-32b8-e044-0003ba298018", "source": "Danmarks Adresseregister"}, "geometry": {"type": "Point", "coordinates": [12.419415, 55.740776]}, "id": "node/340664450"}, {"type": "Feature", "properties": {"@id": "node/340635366", "addr:city": "S\u00f8borg", "addr:country": "DK", "addr:housenumber": "45", "addr:municipality": "Gladsaxe", "addr:postcode": "2860", "addr:street": "Christianeh\u00f8j", "osak:identifier": "0a3f507c-1d45-32b8-e044-0003ba298018", "source": "Danmarks Adresseregister"}, "geometry": {"type": "Point", "coordinates": [12.506064, 55.741039]}, "id": "node/340635366"}, {"type": "Feature", "properties": {"@id": "node/340677793", "addr:city": "Hvidovre", "addr:country": "DK", "addr:housenumber": "79", "addr:municipality": "Hvidovre", "addr:postcode": "2650", "addr:street": "Bymuren", "osak:identifier": "0a3f507c-bc4c-32b8-e044-0003ba298018", "source": "Danmarks Adresseregister"}, "geometry": {"type": "Point", "coordinates": [12.444388, 55.625567]}, "id": "node/340677793"}, {"type": "Feature", "properties": {"@id": "node/340554726", "addr:city": "Br\u00f8nsh\u00f8j", "addr:country": "DK", "addr:housenumber": "29", "addr:municipality": "K\u00f8benhavn", "addr:postcode": "2700", "addr:street": "Tersl\u00f8sevej", "osak:identifier": "0a3f507b-0d4f-32b8-e044-0003ba298018", "source": "Danmarks Adresseregister"}, "geometry": {"type": "Point", "coordinates": [12.471159, 55.70981]}, "id": "node/340554726"}, {"type": "Feature", "properties": {"@id": "node/340578764", "addr:city": "Frederiksberg", "addr:country": "DK", "addr:housenumber": "14A", "addr:municipality": "Frederiksberg", "addr:postcode": "2000", "addr:street": "Mathildevej", "osak:identifier": "0a3f507b-53ba-32b8-e044-0003ba298018", "source": "Danmarks Adresseregister"}, "geometry": {"type": "Point", "coordinates": [12.517267, 55.675761]}, "id": "node/340578764"}, {"type": "Feature", "properties": {"@id": "node/340666914", "addr:city": "Herlev", "addr:country": "DK", "addr:housenumber": "101", "addr:municipality": "Herlev", "addr:postcode": "2730", "addr:street": "V\u00e5benstedvej", "osak:identifier": "0a3f507c-93ff-32b8-e044-0003ba298018", "source": "Danmarks Adresseregister"}, "geometry": {"type": "Point", "coordinates": [12.429642, 55.73135]}, "id": "node/340666914"}, {"type": "Feature", "properties": {"@id": "node/340620753", "addr:city": "Charlottenlund", "addr:country": "DK", "addr:housenumber": "19", "addr:municipality": "Gentofte", "addr:postcode": "2920", "addr:street": "Ingersvej", "osak:identifier": "0a3f507b-e933-32b8-e044-0003ba298018", "source": "Danmarks Adresseregister"}, "geometry": {"type": "Point", "coordinates": [12.561616, 55.748131]}, "id": "node/340620753"}, {"type": "Feature", "properties": {"@id": "node/340502455", "addr:city": "K\u00f8benhavn NV", "addr:country": "DK", "addr:housenumber": "51", "addr:municipality": "K\u00f8benhavn", "addr:postcode": "2400", "addr:street": "Engblommevej", "osak:identifier": "0a3f507a-65fb-32b8-e044-0003ba298018", "source": "Danmarks Adresseregister"}, "geometry": {"type": "Point", "coordinates": [12.526778, 55.721488]}, "id": "node/340502455"}, {"type": "Feature", "properties": {"@id": "node/340736758", "addr:city": "R\u00f8dovre", "addr:country": "DK", "addr:housenumber": "14", "addr:municipality": "R\u00f8dovre", "addr:postcode": "2610", "addr:street": "Sommerfuglevej", "osak:identifier": "0a3f507d-981d-32b8-e044-0003ba298018", "source": "Danmarks Adresseregister"}, "geometry": {"type": "Point", "coordinates": [12.447128, 55.703545]}, "id": "node/340736758"}, {"type": "Feature", "properties": {"@id": "node/5643828508", "addr:city": "K\u00f8benhavn S", "addr:country": "DK", "addr:housenumber": "136", "addr:municipality": "K\u00f8benhavn", "addr:postcode": "2300", "addr:street": "Amagerf\u00e6lledvej", "osak:identifier": "c9ab1efd-d51f-4e85-8185-5541fe2ca6bd", "source": "Danmarks Adresseregister"}, "geometry": {"type": "Point", "coordinates": [12.590669, 55.656533]}, "id": "node/5643828508"}, {"type": "Feature", "properties": {"@id": "node/340554130", "addr:city": "Valby", "addr:country": "DK", "addr:housenumber": "24", "addr:municipality": "K\u00f8benhavn", "addr:postcode": "2500", "addr:street": "S\u00f8ndre All\u00e9", "osak:identifier": "0a3f507b-0b13-32b8-e044-0003ba298018", "source": "Danmarks Adresseregister"}, "geometry": {"type": "Point", "coordinates": [12.494946, 55.666177]}, "id": "node/340554130"}, {"type": "Feature", "properties": {"@id": "node/340529660", "addr:city": "K\u00f8benhavn \u00d8", "addr:country": "DK", "addr:housenumber": "43", "addr:municipality": "K\u00f8benhavn", "addr:postcode": "2100", "addr:street": "Lyngbyvej", "osak:identifier": "0a3f507a-bce9-32b8-e044-0003ba298018", "source": "Danmarks Adresseregister"}, "geometry": {"type": "Point", "coordinates": [12.56068, 55.710069]}, "id": "node/340529660"}, {"type": "Feature", "properties": {"@id": "node/340495325", "addr:city": "Br\u00f8nsh\u00f8j", "addr:country": "DK", "addr:housenumber": "35", "addr:municipality": "K\u00f8benhavn", "addr:postcode": "2700", "addr:street": "Brov\u00e6nget", "osak:identifier": "0a3f507a-5013-32b8-e044-0003ba298018", "source": "Danmarks Adresseregister"}, "geometry": {"type": "Point", "coordinates": [12.457114, 55.70619]}, "id": "node/340495325"}, {"type": "Feature", "properties": {"@id": "node/340664652", "addr:city": "Herlev", "addr:country": "DK", "addr:housenumber": "53", "addr:municipality": "Herlev", "addr:postcode": "2730", "addr:street": "Skelh\u00f8jen", "osak:identifier": "0a3f507c-8b71-32b8-e044-0003ba298018", "source": "Danmarks Adresseregister"}, "geometry": {"type": "Point", "coordinates": [12.427116, 55.728632]}, "id": "node/340664652"}, {"type": "Feature", "properties": {"@id": "node/3728282842", "addr:city": "R\u00f8dovre", "addr:country": "DK", "addr:housenumber": "1", "addr:municipality": "R\u00f8dovre", "addr:postcode": "2610", "addr:street": "Annexg\u00e5rdsvej", "osak:identifier": "32cc5dc4-b2cc-4089-a107-cf9754f416e9", "source": "Danmarks Adresseregister"}, "geometry": {"type": "Point", "coordinates": [12.469236, 55.672719]}, "id": "node/3728282842"}, {"type": "Feature", "properties": {"@id": "node/3185301628", "addr:city": "K\u00f8benhavn S", "addr:country": "DK", "addr:housenumber": "78J", "addr:municipality": "K\u00f8benhavn", "addr:postcode": "2300", "addr:street": "Hovm\u00e5lvej", "osak:identifier": "57389c9c-a4b0-4161-82bd-f5d8e007b922", "source": "Danmarks Adresseregister"}, "geometry": {"type": "Point", "coordinates": [12.584603, 55.632631]}, "id": "node/3185301628"}, {"type": "Feature", "properties": {"@id": "node/340538143", "addr:city": "K\u00f8benhavn N", "addr:country": "DK", "addr:housenumber": "14", "addr:municipality": "K\u00f8benhavn", "addr:postcode": "2200", "addr:street": "Peblinge Dossering", "osak:identifier": "0a3f507a-d886-32b8-e044-0003ba298018", "source": "Danmarks Adresseregister"}, "geometry": {"type": "Point", "coordinates": [12.561197, 55.686212]}, "id": "node/340538143"}, {"type": "Feature", "properties": {"@id": "node/340567455", "addr:city": "K\u00f8benhavn \u00d8", "addr:country": "DK", "addr:housenumber": "52", "addr:municipality": "K\u00f8benhavn", "addr:postcode": "2100", "addr:street": "Willemoesgade", "osak:identifier": "0a3f507b-2b63-32b8-e044-0003ba298018", "source": "Danmarks Adresseregister"}, "geometry": {"type": "Point", "coordinates": [12.585473, 55.698297]}, "id": "node/340567455"}, {"type": "Feature", "properties": {"@id": "node/340532472", "addr:city": "K\u00f8benhavn NV", "addr:country": "DK", "addr:housenumber": "46", "addr:municipality": "K\u00f8benhavn", "addr:postcode": "2400", "addr:street": "Mosesvinget", "osak:identifier": "0a3f507a-c5a0-32b8-e044-0003ba298018", "source": "Danmarks Adresseregister"}, "geometry": {"type": "Point", "coordinates": [12.509826, 55.714676]}, "id": "node/340532472"}, {"type": "Feature", "properties": {"@id": "node/340534167", "addr:city": "K\u00f8benhavn \u00d8", "addr:country": "DK", "addr:housenumber": "27", "addr:municipality": "K\u00f8benhavn", "addr:postcode": "2100", "addr:street": "Nordre Frihavnsgade", "osak:identifier": "0a3f507a-cbc3-32b8-e044-0003ba298018", "source": "Danmarks Adresseregister"}, "geometry": {"type": "Point", "coordinates": [12.580592, 55.701392]}, "id": "node/340534167"}, {"type": "Feature", "properties": {"@id": "node/340558903", "addr:city": "K\u00f8benhavn S", "addr:country": "DK", "addr:housenumber": "62", "addr:municipality": "K\u00f8benhavn", "addr:postcode": "2300", "addr:street": "Ungarnsgade", "osak:identifier": "0a3f507b-1968-32b8-e044-0003ba298018", "source": "Danmarks Adresseregister"}, "geometry": {"type": "Point", "coordinates": [12.614132, 55.663007]}, "id": "node/340558903"}, {"type": "Feature", "properties": {"@id": "node/3952159574", "addr:city": "Br\u00f8ndby", "addr:country": "DK", "addr:housenumber": "56", "addr:municipality": "Br\u00f8ndby", "addr:postcode": "2605", "addr:street": "Lilleg\u00e5rden", "osak:identifier": "f17fcca7-b0a6-4818-bce9-7a695d643361", "source": "Danmarks Adresseregister"}, "geometry": {"type": "Point", "coordinates": [12.425701, 55.632428]}, "id": "node/3952159574"}, {"type": "Feature", "properties": {"@id": "node/340550656", "addr:city": "K\u00f8benhavn K", "addr:country": "DK", "addr:housenumber": "3", "addr:municipality": "K\u00f8benhavn", "addr:postcode": "1255", "addr:street": "Store Strandstr\u00e6de", "osak:identifier": "0a3f507b-007d-32b8-e044-0003ba298018", "source": "Danmarks Adresseregister"}, "geometry": {"type": "Point", "coordinates": [12.587938, 55.680991]}, "id": "node/340550656"}, {"type": "Feature", "properties": {"@id": "node/340619610", "addr:city": "Hellerup", "addr:country": "DK", "addr:housenumber": "24", "addr:municipality": "Gentofte", "addr:postcode": "2900", "addr:street": "Hesseltoften", "osak:identifier": "0a3f507b-e56e-32b8-e044-0003ba298018", "source": "Danmarks Adresseregister"}, "geometry": {"type": "Point", "coordinates": [12.554238, 55.741301]}, "id": "node/340619610"}, {"type": "Feature", "properties": {"@id": "node/340662667", "addr:city": "Herlev", "addr:country": "DK", "addr:housenumber": "67B", "addr:municipality": "Herlev", "addr:postcode": "2730", "addr:street": "K\u00f8lleg\u00e5rdsvej", "osak:identifier": "0a3f507c-83e4-32b8-e044-0003ba298018", "source": "Danmarks Adresseregister"}, "geometry": {"type": "Point", "coordinates": [12.445478, 55.738491]}, "id": "node/340662667"}, {"type": "Feature", "properties": {"@id": "node/340757022", "addr:city": "Kastrup", "addr:country": "DK", "addr:housenumber": "254", "addr:municipality": "T\u00e5rnby", "addr:postcode": "2770", "addr:street": "Englandsvej", "osak:identifier": "0a3f507d-e7a6-32b8-e044-0003ba298018", "source": "Danmarks Adresseregister"}, "geometry": {"type": "Point", "coordinates": [12.600056, 55.635953]}, "id": "node/340757022"}, {"type": "Feature", "properties": {"@id": "node/340518233", "addr:city": "Vanl\u00f8se", "addr:country": "DK", "addr:housenumber": "28", "addr:municipality": "K\u00f8benhavn", "addr:postcode": "2720", "addr:street": "H\u00f8gholtvej", "osak:identifier": "0a3f507a-95ef-32b8-e044-0003ba298018", "source": "Danmarks Adresseregister"}, "geometry": {"type": "Point", "coordinates": [12.488608, 55.692173]}, "id": "node/340518233"}, {"type": "Feature", "properties": {"@id": "node/340525482", "addr:city": "K\u00f8benhavn S", "addr:country": "DK", "addr:housenumber": "91", "addr:municipality": "K\u00f8benhavn", "addr:postcode": "2300", "addr:street": "Kornskyldvej", "osak:identifier": "0a3f507a-adc6-32b8-e044-0003ba298018", "source": "Danmarks Adresseregister"}, "geometry": {"type": "Point", "coordinates": [12.586556, 55.630931]}, "id": "node/340525482"}, {"type": "Feature", "properties": {"@id": "node/340504606", "addr:city": "K\u00f8benhavn K", "addr:country": "DK", "addr:housenumber": "21", "addr:municipality": "K\u00f8benhavn", "addr:postcode": "1171", "addr:street": "Fiolstr\u00e6de", "osak:identifier": "0a3f507a-6bd0-32b8-e044-0003ba298018", "source": "Danmarks Adresseregister"}, "geometry": {"type": "Point", "coordinates": [12.572059, 55.68186]}, "id": "node/340504606"}, {"type": "Feature", "properties": {"@id": "node/340501787", "addr:city": "K\u00f8benhavn \u00d8", "addr:country": "DK", "addr:housenumber": "121", "addr:municipality": "K\u00f8benhavn", "addr:postcode": "2100", "addr:street": "Emdrup Banke", "osak:identifier": "0a3f507a-63c9-32b8-e044-0003ba298018", "source": "Danmarks Adresseregister"}, "geometry": {"type": "Point", "coordinates": [12.548141, 55.718778]}, "id": "node/340501787"}, {"type": "Feature", "properties": {"@id": "node/340663891", "addr:city": "Herlev", "addr:country": "DK", "addr:housenumber": "43", "addr:municipality": "Herlev", "addr:postcode": "2730", "addr:street": "Persillehaven", "osak:identifier": "0a3f507c-887d-32b8-e044-0003ba298018", "source": "Danmarks Adresseregister"}, "geometry": {"type": "Point", "coordinates": [12.432802, 55.741767]}, "id": "node/340663891"}, {"type": "Feature", "properties": {"@id": "node/340511402", "addr:city": "Valby", "addr:country": "DK", "addr:housenumber": "5", "addr:municipality": "K\u00f8benhavn", "addr:postcode": "2500", "addr:street": "G\u00e5seb\u00e6ksvej", "osak:identifier": "0a3f507a-8204-32b8-e044-0003ba298018", "source": "Danmarks Adresseregister"}, "geometry": {"type": "Point", "coordinates": [12.506476, 55.666842]}, "id": "node/340511402"}, {"type": "Feature", "properties": {"@id": "node/340664307", "addr:city": "Herlev", "addr:country": "DK", "addr:housenumber": "18", "addr:municipality": "Herlev", "addr:postcode": "2730", "addr:street": "R\u00f8rb\u00e6kvej", "osak:identifier": "0a3f507c-8a1b-32b8-e044-0003ba298018", "source": "Danmarks Adresseregister"}, "geometry": {"type": "Point", "coordinates": [12.431239, 55.732497]}, "id": "node/340664307"}, {"type": "Feature", "properties": {"@id": "node/340757528", "addr:city": "Kastrup", "addr:country": "DK", "addr:housenumber": "110", "addr:municipality": "T\u00e5rnby", "addr:postcode": "2770", "addr:street": "Gammel Kirkevej", "osak:identifier": "0a3f507d-e9a0-32b8-e044-0003ba298018", "source": "Danmarks Adresseregister"}, "geometry": {"type": "Point", "coordinates": [12.620078, 55.6312]}, "id": "node/340757528"}, {"type": "Feature", "properties": {"@id": "node/340675914", "addr:city": "Hvidovre", "addr:country": "DK", "addr:housenumber": "34", "addr:municipality": "Hvidovre", "addr:postcode": "2650", "addr:street": "Ajax Alle", "osak:identifier": "0a3f507c-b54b-32b8-e044-0003ba298018", "source": "Danmarks Adresseregister"}, "geometry": {"type": "Point", "coordinates": [12.475381, 55.627146]}, "id": "node/340675914"}, {"type": "Feature", "properties": {"@id": "node/3185261263", "addr:city": "Bagsv\u00e6rd", "addr:country": "DK", "addr:housenumber": "71", "addr:municipality": "Gladsaxe", "addr:postcode": "2880", "addr:street": "Haveforeningen 4. Juli", "osak:identifier": "beacafbf-6835-4b7a-8765-05343fbb0fd2", "source": "Danmarks Adresseregister"}, "geometry": {"type": "Point", "coordinates": [12.458118, 55.74503]}, "id": "node/3185261263"}, {"type": "Feature", "properties": {"@id": "node/340575524", "addr:city": "Frederiksberg", "addr:country": "DK", "addr:housenumber": "36", "addr:municipality": "Frederiksberg", "addr:postcode": "2000", "addr:street": "Fuglebakkevej", "osak:identifier": "0a3f507b-4916-32b8-e044-0003ba298018", "source": "Danmarks Adresseregister"}, "geometry": {"type": "Point", "coordinates": [12.526057, 55.689732]}, "id": "node/340575524"}, {"type": "Feature", "properties": {"@id": "node/340731685", "addr:city": "R\u00f8dovre", "addr:country": "DK", "addr:housenumber": "65A", "addr:municipality": "R\u00f8dovre", "addr:postcode": "2610", "addr:street": "Kamstrupvej", "osak:identifier": "0a3f507d-8590-32b8-e044-0003ba298018", "source": "Danmarks Adresseregister"}, "geometry": {"type": "Point", "coordinates": [12.443126, 55.684411]}, "id": "node/340731685"}, {"type": "Feature", "properties": {"@id": "node/340493325", "addr:city": "K\u00f8benhavn S", "addr:country": "DK", "addr:housenumber": "7", "addr:municipality": "K\u00f8benhavn", "addr:postcode": "2300", "addr:street": "Borgerbo", "osak:identifier": "0a3f507a-4b2d-32b8-e044-0003ba298018", "source": "Danmarks Adresseregister"}, "geometry": {"type": "Point", "coordinates": [12.596173, 55.664301]}, "id": "node/340493325"}, {"type": "Feature", "properties": {"@id": "node/340505405", "addr:city": "K\u00f8benhavn NV", "addr:country": "DK", "addr:housenumber": "12B", "addr:municipality": "K\u00f8benhavn", "addr:postcode": "2400", "addr:street": "C.J. Frandsens Vej", "osak:identifier": "0a3f507a-6ea4-32b8-e044-0003ba298018", "source": "Danmarks Adresseregister"}, "geometry": {"type": "Point", "coordinates": [12.532531, 55.724404]}, "id": "node/340505405"}, {"type": "Feature", "properties": {"@id": "node/340511767", "addr:city": "K\u00f8benhavn SV", "addr:country": "DK", "addr:housenumber": "13", "addr:municipality": "K\u00f8benhavn", "addr:postcode": "2450", "addr:street": "Hammelstrupvej", "osak:identifier": "0a3f507a-835b-32b8-e044-0003ba298018", "source": "Danmarks Adresseregister"}, "geometry": {"type": "Point", "coordinates": [12.526325, 55.647362]}, "id": "node/340511767"}, {"type": "Feature", "properties": {"@id": "node/340495527", "addr:city": "K\u00f8benhavn \u00d8", "addr:country": "DK", "addr:housenumber": "210", "addr:municipality": "K\u00f8benhavn", "addr:postcode": "2100", "addr:street": "Brumleby", "osak:identifier": "0a3f507a-50e8-32b8-e044-0003ba298018", "source": "Danmarks Adresseregister"}, "geometry": {"type": "Point", "coordinates": [12.574564, 55.701812]}, "id": "node/340495527"}, {"type": "Feature", "properties": {"@id": "node/340520392", "addr:city": "K\u00f8benhavn V", "addr:country": "DK", "addr:housenumber": "15", "addr:municipality": "K\u00f8benhavn", "addr:postcode": "1650", "addr:street": "Istedgade", "osak:identifier": "0a3f507a-9ba5-32b8-e044-0003ba298018", "source": "Danmarks Adresseregister"}, "geometry": {"type": "Point", "coordinates": [12.56056, 55.67133]}, "id": "node/340520392"}, {"type": "Feature", "properties": {"@id": "node/340534423", "addr:city": "Br\u00f8nsh\u00f8j", "addr:country": "DK", "addr:housenumber": "21", "addr:municipality": "K\u00f8benhavn", "addr:postcode": "2700", "addr:street": "Nordrupvej", "osak:identifier": "0a3f507a-cc56-32b8-e044-0003ba298018", "source": "Danmarks Adresseregister"}, "geometry": {"type": "Point", "coordinates": [12.474397, 55.703255]}, "id": "node/340534423"}, {"type": "Feature", "properties": {"@id": "node/340736581", "addr:city": "R\u00f8dovre", "addr:country": "DK", "addr:housenumber": "95", "addr:municipality": "R\u00f8dovre", "addr:postcode": "2610", "addr:street": "Slotsherrens Have", "osak:identifier": "0a3f507d-974b-32b8-e044-0003ba298018", "source": "Danmarks Adresseregister"}, "geometry": {"type": "Point", "coordinates": [12.459684, 55.703187]}, "id": "node/340736581"}, {"type": "Feature", "properties": {"@id": "node/5644222531", "addr:city": "Valby", "addr:country": "DK", "addr:housenumber": "14H", "addr:municipality": "K\u00f8benhavn", "addr:postcode": "2500", "addr:street": "Carl Jacobsens Vej", "osak:identifier": "2fdc821d-9a8b-4279-a09b-279f042d177b", "source": "Danmarks Adresseregister"}, "geometry": {"type": "Point", "coordinates": [12.519427, 55.6538]}, "id": "node/5644222531"}, {"type": "Feature", "properties": {"@id": "node/340534449", "addr:city": "Br\u00f8nsh\u00f8j", "addr:country": "DK", "addr:housenumber": "43", "addr:municipality": "K\u00f8benhavn", "addr:postcode": "2700", "addr:street": "Nordrupvej", "osak:identifier": "0a3f507a-cc61-32b8-e044-0003ba298018", "source": "Danmarks Adresseregister"}, "geometry": {"type": "Point", "coordinates": [12.473718, 55.703286]}, "id": "node/340534449"}, {"type": "Feature", "properties": {"@id": "node/340658672", "addr:city": "Herlev", "addr:country": "DK", "addr:housenumber": "4", "addr:municipality": "Herlev", "addr:postcode": "2730", "addr:street": "Barupvej", "osak:identifier": "0a3f507c-7481-32b8-e044-0003ba298018", "source": "Danmarks Adresseregister"}, "geometry": {"type": "Point", "coordinates": [12.418366, 55.749036]}, "id": "node/340658672"}, {"type": "Feature", "properties": {"@id": "node/340598022", "addr:city": "Br\u00f8ndby Strand", "addr:country": "DK", "addr:housenumber": "18", "addr:municipality": "Br\u00f8ndby", "addr:postcode": "2660", "addr:street": "B\u00e5dsmandsvej", "osak:identifier": "0a3f507b-99c0-32b8-e044-0003ba298018", "source": "Danmarks Adresseregister"}, "geometry": {"type": "Point", "coordinates": [12.439787, 55.616601]}, "id": "node/340598022"}, {"type": "Feature", "properties": {"@id": "node/340523842", "addr:city": "K\u00f8benhavn SV", "addr:country": "DK", "addr:housenumber": "28", "addr:municipality": "K\u00f8benhavn", "addr:postcode": "2450", "addr:street": "K.M. Klausens Gade", "osak:identifier": "0a3f507a-a7bd-32b8-e044-0003ba298018", "source": "Danmarks Adresseregister"}, "geometry": {"type": "Point", "coordinates": [12.536924, 55.650077]}, "id": "node/340523842"}, {"type": "Feature", "properties": {"@id": "node/340688554", "addr:city": "Hvidovre", "addr:country": "DK", "addr:housenumber": "46", "addr:municipality": "Hvidovre", "addr:postcode": "2650", "addr:street": "S\u00f8nderk\u00e6r", "osak:identifier": "0a3f507c-e4f0-32b8-e044-0003ba298018", "source": "Danmarks Adresseregister"}, "geometry": {"type": "Point", "coordinates": [12.480289, 55.64987]}, "id": "node/340688554"}, {"type": "Feature", "properties": {"@id": "node/737126965", "addr:city": "K\u00f8benhavn V", "addr:country": "DK", "addr:housenumber": "28", "addr:municipality": "K\u00f8benhavn", "addr:postcode": "1561", "addr:street": "Havneholmen", "osak:identifier": "1de21027-9c5b-1d9f-e044-0003ba298018", "source": "Danmarks Adresseregister"}, "geometry": {"type": "Point", "coordinates": [12.561212, 55.659985]}, "id": "node/737126965"}, {"type": "Feature", "properties": {"@id": "node/340519627", "addr:city": "K\u00f8benhavn \u00d8", "addr:country": "DK", "addr:housenumber": "12", "addr:municipality": "K\u00f8benhavn", "addr:postcode": "2100", "addr:street": "Indiakaj", "osak:identifier": "0a3f507a-998a-32b8-e044-0003ba298018", "source": "Danmarks Adresseregister"}, "geometry": {"type": "Point", "coordinates": [12.597039, 55.695151]}, "id": "node/340519627"}, {"type": "Feature", "properties": {"@id": "node/340539695", "addr:city": "Br\u00f8nsh\u00f8j", "addr:country": "DK", "addr:housenumber": "12", "addr:municipality": "K\u00f8benhavn", "addr:postcode": "2700", "addr:street": "Pr\u00e6steg\u00e5rds All\u00e9", "osak:identifier": "0a3f507a-dd3c-32b8-e044-0003ba298018", "source": "Danmarks Adresseregister"}, "geometry": {"type": "Point", "coordinates": [12.495509, 55.705939]}, "id": "node/340539695"}, {"type": "Feature", "properties": {"@id": "node/740711495", "addr:city": "K\u00f8benhavn V", "addr:country": "DK", "addr:housenumber": "10B", "addr:municipality": "K\u00f8benhavn", "addr:postcode": "1634", "addr:street": "Rosen\u00f8rns All\u00e9", "osak:identifier": "0a3f507a-e4f6-32b8-e044-0003ba298018", "source": "Danmarks Adresseregister"}, "geometry": {"type": "Point", "coordinates": [12.555616, 55.681883]}, "id": "node/740711495"}, {"type": "Feature", "properties": {"@id": "node/340521382", "addr:city": "K\u00f8benhavn S", "addr:country": "DK", "addr:housenumber": "36", "addr:municipality": "K\u00f8benhavn", "addr:postcode": "2300", "addr:street": "Jens Warmings Vej", "osak:identifier": "0a3f507a-9e72-32b8-e044-0003ba298018", "source": "Danmarks Adresseregister"}, "geometry": {"type": "Point", "coordinates": [12.600196, 55.64381]}, "id": "node/340521382"}, {"type": "Feature", "properties": {"@id": "node/340736135", "addr:city": "R\u00f8dovre", "addr:country": "DK", "addr:housenumber": "35A", "addr:municipality": "R\u00f8dovre", "addr:postcode": "2610", "addr:street": "R\u00e5dmand Billes Vej", "osak:identifier": "0a3f507d-959f-32b8-e044-0003ba298018", "source": "Danmarks Adresseregister"}, "geometry": {"type": "Point", "coordinates": [12.442028, 55.698588]}, "id": "node/340736135"}, {"type": "Feature", "properties": {"@id": "node/340514472", "addr:city": "K\u00f8benhavn NV", "addr:country": "DK", "addr:housenumber": "133", "addr:municipality": "K\u00f8benhavn", "addr:postcode": "2400", "addr:street": "Hiller\u00f8dgade", "osak:identifier": "0a3f507a-8ccf-32b8-e044-0003ba298018", "source": "Danmarks Adresseregister"}, "geometry": {"type": "Point", "coordinates": [12.517566, 55.696068]}, "id": "node/340514472"}, {"type": "Feature", "properties": {"@id": "node/340511469", "addr:city": "K\u00f8benhavn S", "addr:country": "DK", "addr:housenumber": "4", "addr:municipality": "K\u00f8benhavn", "addr:postcode": "2300", "addr:street": "Hagbardvej", "osak:identifier": "0a3f507a-8248-32b8-e044-0003ba298018", "source": "Danmarks Adresseregister"}, "geometry": {"type": "Point", "coordinates": [12.635342, 55.65659]}, "id": "node/340511469"}, {"type": "Feature", "properties": {"@id": "node/340501606", "addr:city": "K\u00f8benhavn \u00d8", "addr:country": "DK", "addr:housenumber": "9", "addr:municipality": "K\u00f8benhavn", "addr:postcode": "2100", "addr:street": "Emdrup Banke", "osak:identifier": "0a3f507a-6359-32b8-e044-0003ba298018", "source": "Danmarks Adresseregister"}, "geometry": {"type": "Point", "coordinates": [12.548942, 55.719502]}, "id": "node/340501606"}, {"type": "Feature", "properties": {"@id": "node/340581510", "addr:city": "Frederiksberg", "addr:country": "DK", "addr:housenumber": "54A", "addr:municipality": "Frederiksberg", "addr:postcode": "2000", "addr:street": "S\u00f8ndre Fasanvej", "osak:identifier": "0a3f507b-5d8f-32b8-e044-0003ba298018", "source": "Danmarks Adresseregister"}, "geometry": {"type": "Point", "coordinates": [12.517232, 55.67063]}, "id": "node/340581510"}, {"type": "Feature", "properties": {"@id": "node/1207239832", "addr:city": "Valby", "addr:country": "DK", "addr:housenumber": "16", "addr:municipality": "K\u00f8benhavn", "addr:postcode": "2500", "addr:street": "Poul Reichhardts Vej", "osak:identifier": "6dc24404-6c4e-456f-9cf5-5a24fb25a487", "source": "Danmarks Adresseregister"}, "geometry": {"type": "Point", "coordinates": [12.509282, 55.656323]}, "id": "node/1207239832"}, {"type": "Feature", "properties": {"@id": "node/340501545", "addr:city": "K\u00f8benhavn K", "addr:country": "DK", "addr:housenumber": "47", "addr:municipality": "K\u00f8benhavn", "addr:postcode": "1324", "addr:street": "Elsdyrsgade", "osak:identifier": "0a3f507a-6335-32b8-e044-0003ba298018", "source": "Danmarks Adresseregister"}, "geometry": {"type": "Point", "coordinates": [12.589053, 55.6889]}, "id": "node/340501545"}, {"type": "Feature", "properties": {"@id": "node/340729072", "addr:city": "R\u00f8dovre", "addr:country": "DK", "addr:housenumber": "140", "addr:municipality": "R\u00f8dovre", "addr:postcode": "2610", "addr:street": "Ejbyvej", "osak:identifier": "0a3f507d-7b7a-32b8-e044-0003ba298018", "source": "Danmarks Adresseregister"}, "geometry": {"type": "Point", "coordinates": [12.442891, 55.687402]}, "id": "node/340729072"}, {"type": "Feature", "properties": {"@id": "node/340626288", "addr:city": "Hellerup", "addr:country": "DK", "addr:housenumber": "3", "addr:municipality": "Gentofte", "addr:postcode": "2900", "addr:street": "Ryg\u00e5rds Alle", "osak:identifier": "0a3f507b-fbe1-32b8-e044-0003ba298018", "source": "Danmarks Adresseregister"}, "geometry": {"type": "Point", "coordinates": [12.563554, 55.734925]}, "id": "node/340626288"}, {"type": "Feature", "properties": {"@id": "node/340686098", "addr:city": "Hvidovre", "addr:country": "DK", "addr:housenumber": "49B", "addr:municipality": "Hvidovre", "addr:postcode": "2650", "addr:street": "Reb\u00e6k Alle", "osak:identifier": "0a3f507c-dc36-32b8-e044-0003ba298018", "source": "Danmarks Adresseregister"}, "geometry": {"type": "Point", "coordinates": [12.461939, 55.656604]}, "id": "node/340686098"}, {"type": "Feature", "properties": {"@id": "node/340578305", "addr:city": "Frederiksberg C", "addr:country": "DK", "addr:housenumber": "21", "addr:municipality": "Frederiksberg", "addr:postcode": "1902", "addr:street": "Lykkesholms All\u00e9", "osak:identifier": "0a3f507b-522f-32b8-e044-0003ba298018", "source": "Danmarks Adresseregister"}, "geometry": {"type": "Point", "coordinates": [12.548239, 55.678096]}, "id": "node/340578305"}, {"type": "Feature", "properties": {"@id": "node/340757211", "addr:city": "Kastrup", "addr:country": "DK", "addr:housenumber": "41", "addr:municipality": "T\u00e5rnby", "addr:postcode": "2770", "addr:street": "Finderupvej", "osak:identifier": "0a3f507d-e85d-32b8-e044-0003ba298018", "source": "Danmarks Adresseregister"}, "geometry": {"type": "Point", "coordinates": [12.585912, 55.620487]}, "id": "node/340757211"}, {"type": "Feature", "properties": {"@id": "node/3391622278", "addr:city": "K\u00f8benhavn S", "addr:country": "DK", "addr:housenumber": "134", "addr:municipality": "K\u00f8benhavn", "addr:postcode": "2300", "addr:street": "Vejlands All\u00e9", "osak:identifier": "0a3f507b-208b-32b8-e044-0003ba298018", "source": "Danmarks Adresseregister"}, "geometry": {"type": "Point", "coordinates": [12.5927, 55.642714]}, "id": "node/3391622278"}, {"type": "Feature", "properties": {"@id": "node/3728286571", "addr:city": "K\u00f8benhavn SV", "addr:country": "DK", "addr:housenumber": "229", "addr:municipality": "K\u00f8benhavn", "addr:postcode": "2450", "addr:street": "Hf. Musikbyen", "osak:identifier": "9d594c01-091c-44fe-8c8a-fd4a2a4c936a", "source": "Danmarks Adresseregister"}, "geometry": {"type": "Point", "coordinates": [12.528008, 55.641491]}, "id": "node/3728286571"}, {"type": "Feature", "properties": {"@id": "node/7263141994", "addr:city": "K\u00f8benhavn K", "addr:country": "DK", "addr:housenumber": "20", "addr:municipality": "K\u00f8benhavn", "addr:postcode": "1256", "addr:street": "Amaliegade", "osak:identifier": "0a3f507a-3b2c-32b8-e044-0003ba298018", "source": "Danmarks Adresseregister"}, "geometry": {"type": "Point", "coordinates": [12.593998, 55.684651]}, "id": "node/7263141994"}, {"type": "Feature", "properties": {"@id": "node/7264046499", "addr:city": "Frederiksberg C", "addr:country": "DK", "addr:housenumber": "1", "addr:municipality": "Frederiksberg", "addr:postcode": "1824", "addr:street": "Sankt Thomas Alle", "osak:identifier": "0a3f507b-5ae3-32b8-e044-0003ba298018", "source": "Danmarks Adresseregister"}, "geometry": {"type": "Point", "coordinates": [12.546969, 55.673922]}, "id": "node/7264046499"}, {"type": "Feature", "properties": {"@id": "node/340686831", "addr:city": "Hvidovre", "addr:country": "DK", "addr:housenumber": "73", "addr:municipality": "Hvidovre", "addr:postcode": "2650", "addr:street": "Sk\u00e5rupvej", "osak:identifier": "0a3f507c-df01-32b8-e044-0003ba298018", "source": "Danmarks Adresseregister"}, "geometry": {"type": "Point", "coordinates": [12.469931, 55.628598]}, "id": "node/340686831"}, {"type": "Feature", "properties": {"@id": "node/340658935", "addr:city": "Herlev", "addr:country": "DK", "addr:housenumber": "115", "addr:municipality": "Herlev", "addr:postcode": "2730", "addr:street": "Borgerdiget", "osak:identifier": "0a3f507c-7588-32b8-e044-0003ba298018", "source": "Danmarks Adresseregister"}, "geometry": {"type": "Point", "coordinates": [12.428833, 55.732533]}, "id": "node/340658935"}, {"type": "Feature", "properties": {"@id": "node/340684175", "addr:city": "Hvidovre", "addr:country": "DK", "addr:housenumber": "23", "addr:municipality": "Hvidovre", "addr:postcode": "2650", "addr:street": "Lerbjergvej", "osak:identifier": "0a3f507c-d505-32b8-e044-0003ba298018", "source": "Danmarks Adresseregister"}, "geometry": {"type": "Point", "coordinates": [12.494029, 55.642444]}, "id": "node/340684175"}, {"type": "Feature", "properties": {"@id": "node/340758114", "addr:city": "Kastrup", "addr:country": "DK", "addr:housenumber": "61", "addr:municipality": "T\u00e5rnby", "addr:postcode": "2770", "addr:street": "Hadsten Alle", "osak:identifier": "0a3f507d-eb9a-32b8-e044-0003ba298018", "source": "Danmarks Adresseregister"}, "geometry": {"type": "Point", "coordinates": [12.613543, 55.62124]}, "id": "node/340758114"}, {"type": "Feature", "properties": {"@id": "node/340533416", "addr:city": "K\u00f8benhavn NV", "addr:country": "DK", "addr:housenumber": "100", "addr:municipality": "K\u00f8benhavn", "addr:postcode": "2400", "addr:street": "Nattergalevej", "osak:identifier": "0a3f507a-c920-32b8-e044-0003ba298018", "source": "Danmarks Adresseregister"}, "geometry": {"type": "Point", "coordinates": [12.526339, 55.702255]}, "id": "node/340533416"}, {"type": "Feature", "properties": {"@id": "node/340690194", "addr:city": "Hvidovre", "addr:country": "DK", "addr:housenumber": "3", "addr:municipality": "Hvidovre", "addr:postcode": "2650", "addr:street": "\u00d8stre Strandvej", "osak:identifier": "0a3f507c-eadd-32b8-e044-0003ba298018", "source": "Danmarks Adresseregister"}, "geometry": {"type": "Point", "coordinates": [12.465207, 55.622878]}, "id": "node/340690194"}, {"type": "Feature", "properties": {"@id": "node/340730278", "addr:city": "R\u00f8dovre", "addr:country": "DK", "addr:housenumber": "51", "addr:municipality": "R\u00f8dovre", "addr:postcode": "2610", "addr:street": "Gunnek\u00e6r", "osak:identifier": "0a3f507d-802b-32b8-e044-0003ba298018", "source": "Danmarks Adresseregister"}, "geometry": {"type": "Point", "coordinates": [12.457467, 55.682075]}, "id": "node/340730278"}, {"type": "Feature", "properties": {"@id": "node/340489834", "addr:city": "K\u00f8benhavn S", "addr:country": "DK", "addr:housenumber": "17", "addr:municipality": "K\u00f8benhavn", "addr:postcode": "2300", "addr:street": "Bergthorasgade", "osak:identifier": "0a3f507a-43ee-32b8-e044-0003ba298018", "source": "Danmarks Adresseregister"}, "geometry": {"type": "Point", "coordinates": [12.578979, 55.664749]}, "id": "node/340489834"}, {"type": "Feature", "properties": {"@id": "node/340596903", "addr:city": "Br\u00f8ndby", "addr:country": "DK", "addr:housenumber": "134", "addr:municipality": "Br\u00f8ndby", "addr:postcode": "2605", "addr:street": "Bredager", "osak:identifier": "0a3f507b-960a-32b8-e044-0003ba298018", "source": "Danmarks Adresseregister"}, "geometry": {"type": "Point", "coordinates": [12.447002, 55.662539]}, "id": "node/340596903"}, {"type": "Feature", "properties": {"@id": "node/340560602", "addr:city": "Br\u00f8nsh\u00f8j", "addr:country": "DK", "addr:housenumber": "7", "addr:municipality": "K\u00f8benhavn", "addr:postcode": "2700", "addr:street": "Vallekildevej", "osak:identifier": "0a3f507b-1d24-32b8-e044-0003ba298018", "source": "Danmarks Adresseregister"}, "geometry": {"type": "Point", "coordinates": [12.471494, 55.70155]}, "id": "node/340560602"}, {"type": "Feature", "properties": {"@id": "node/340508824", "addr:city": "K\u00f8benhavn NV", "addr:country": "DK", "addr:housenumber": "5", "addr:municipality": "K\u00f8benhavn", "addr:postcode": "2400", "addr:street": "Glasvej", "osak:identifier": "0a3f507a-7a30-32b8-e044-0003ba298018", "source": "Danmarks Adresseregister"}, "geometry": {"type": "Point", "coordinates": [12.529745, 55.703726]}, "id": "node/340508824"}, {"type": "Feature", "properties": {"@id": "node/340526110", "addr:city": "K\u00f8benhavn S", "addr:country": "DK", "addr:housenumber": "7", "addr:municipality": "K\u00f8benhavn", "addr:postcode": "2300", "addr:street": "Krudtm\u00f8lleg\u00e5rds All\u00e9", "osak:identifier": "0a3f507a-afd9-32b8-e044-0003ba298018", "source": "Danmarks Adresseregister"}, "geometry": {"type": "Point", "coordinates": [12.619339, 55.648952]}, "id": "node/340526110"}, {"type": "Feature", "properties": {"@id": "node/340732788", "addr:city": "R\u00f8dovre", "addr:country": "DK", "addr:housenumber": "433", "addr:municipality": "R\u00f8dovre", "addr:postcode": "2610", "addr:street": "Lucernevej", "osak:identifier": "0a3f507d-89d4-32b8-e044-0003ba298018", "source": "Danmarks Adresseregister"}, "geometry": {"type": "Point", "coordinates": [12.439215, 55.682489]}, "id": "node/340732788"}, {"type": "Feature", "properties": {"@id": "node/340650797", "addr:city": "S\u00f8borg", "addr:country": "DK", "addr:housenumber": "33", "addr:municipality": "Gladsaxe", "addr:postcode": "2860", "addr:street": "\u00c5stedvej", "osak:identifier": "0a3f507c-5732-32b8-e044-0003ba298018", "source": "Danmarks Adresseregister"}, "geometry": {"type": "Point", "coordinates": [12.460087, 55.723127]}, "id": "node/340650797"}, {"type": "Feature", "properties": {"@id": "node/10280204912", "addr:city": "R\u00f8dovre", "addr:country": "DK", "addr:housenumber": "18", "addr:municipality": "R\u00f8dovre", "addr:postcode": "2610", "addr:street": "B\u00f8rge Olsens Plads", "osak:identifier": "37660f01-1615-4826-93b2-95f05c39f684", "source": "Danmarks Adresseregister"}, "geometry": {"type": "Point", "coordinates": [12.434615, 55.676205]}, "id": "node/10280204912"}, {"type": "Feature", "properties": {"@id": "node/340677861", "addr:city": "Hvidovre", "addr:country": "DK", "addr:housenumber": "163", "addr:municipality": "Hvidovre", "addr:postcode": "2650", "addr:street": "Bymuren", "osak:identifier": "0a3f507c-bc90-32b8-e044-0003ba298018", "source": "Danmarks Adresseregister"}, "geometry": {"type": "Point", "coordinates": [12.441543, 55.629651]}, "id": "node/340677861"}, {"type": "Feature", "properties": {"@id": "node/340498270", "addr:city": "K\u00f8benhavn S", "addr:country": "DK", "addr:housenumber": "4", "addr:municipality": "K\u00f8benhavn", "addr:postcode": "2300", "addr:street": "Clematisvej", "osak:identifier": "0a3f507a-590f-32b8-e044-0003ba298018", "source": "Danmarks Adresseregister"}, "geometry": {"type": "Point", "coordinates": [12.610628, 55.645703]}, "id": "node/340498270"}, {"type": "Feature", "properties": {"@id": "node/5643812782", "addr:city": "K\u00f8benhavn S", "addr:country": "DK", "addr:housenumber": "40A", "addr:municipality": "K\u00f8benhavn", "addr:postcode": "2300", "addr:street": "Amager Strandvej", "osak:identifier": "f7f1a8db-3571-4bf6-8d55-2ea9e4f9f02d", "source": "Danmarks Adresseregister"}, "geometry": {"type": "Point", "coordinates": [12.627438, 55.666793]}, "id": "node/5643812782"}, {"type": "Feature", "properties": {"@id": "node/340525112", "addr:city": "K\u00f8benhavn \u00d8", "addr:country": "DK", "addr:housenumber": "2", "addr:municipality": "K\u00f8benhavn", "addr:postcode": "2100", "addr:street": "Kong Oscars Gade", "osak:identifier": "0a3f507a-ac46-32b8-e044-0003ba298018", "source": "Danmarks Adresseregister"}, "geometry": {"type": "Point", "coordinates": [12.576761, 55.713695]}, "id": "node/340525112"}, {"type": "Feature", "properties": {"@id": "node/759796714", "addr:city": "S\u00f8borg", "addr:country": "DK", "addr:housenumber": "28", "addr:municipality": "Gladsaxe", "addr:postcode": "2860", "addr:street": "Gladsaxe M\u00f8llevej", "osak:identifier": "0a3f507c-23a1-32b8-e044-0003ba298018", "source": "Danmarks Adresseregister"}, "geometry": {"type": "Point", "coordinates": [12.4758, 55.736681]}, "id": "node/759796714"}, {"type": "Feature", "properties": {"@id": "node/730828357", "addr:city": "K\u00f8benhavn S", "addr:country": "DK", "addr:housenumber": "18", "addr:municipality": "K\u00f8benhavn", "addr:postcode": "2300", "addr:street": "Digevej", "osak:identifier": "0a3f507a-5cdc-32b8-e044-0003ba298018", "source": "Danmarks Adresseregister"}, "geometry": {"type": "Point", "coordinates": [12.587665, 55.648622]}, "id": "node/730828357"}, {"type": "Feature", "properties": {"@id": "node/760588232", "addr:city": "K\u00f8benhavn N", "addr:country": "DK", "addr:housenumber": "7", "addr:municipality": "K\u00f8benhavn", "addr:postcode": "2200", "addr:street": "Titangade", "osak:identifier": "0a3f507b-0fea-32b8-e044-0003ba298018", "source": "Danmarks Adresseregister"}, "geometry": {"type": "Point", "coordinates": [12.553526, 55.703735]}, "id": "node/760588232"}, {"type": "Feature", "properties": {"@id": "node/340580518", "addr:city": "Frederiksberg", "addr:country": "DK", "addr:housenumber": "65A", "addr:municipality": "Frederiksberg", "addr:postcode": "2000", "addr:street": "Roskildevej", "osak:identifier": "0a3f507b-5a3c-32b8-e044-0003ba298018", "source": "Danmarks Adresseregister"}, "geometry": {"type": "Point", "coordinates": [12.507515, 55.67189]}, "id": "node/340580518"}, {"type": "Feature", "properties": {"@id": "node/340760494", "addr:city": "Kastrup", "addr:country": "DK", "addr:housenumber": "15", "addr:municipality": "T\u00e5rnby", "addr:postcode": "2770", "addr:street": "Hyben Alle", "osak:identifier": "0a3f507d-f3e8-32b8-e044-0003ba298018", "source": "Danmarks Adresseregister"}, "geometry": {"type": "Point", "coordinates": [12.624947, 55.639408]}, "id": "node/340760494"}, {"type": "Feature", "properties": {"@id": "node/3824840287", "addr:city": "K\u00f8benhavn S", "addr:country": "DK", "addr:housenumber": "18P", "addr:municipality": "K\u00f8benhavn", "addr:postcode": "2300", "addr:street": "Richard Mortensens Vej", "osak:identifier": "3e0feeb0-8816-464c-bca1-21fa2930e42e", "source": "Danmarks Adresseregister"}, "geometry": {"type": "Point", "coordinates": [12.570976, 55.623158]}, "id": "node/3824840287"}, {"type": "Feature", "properties": {"@id": "node/340532063", "addr:city": "K\u00f8benhavn N", "addr:country": "DK", "addr:housenumber": "102", "addr:municipality": "K\u00f8benhavn", "addr:postcode": "2200", "addr:street": "Mj\u00f8lnerparken", "osak:identifier": "0a3f507a-c47d-32b8-e044-0003ba298018", "source": "Danmarks Adresseregister"}, "geometry": {"type": "Point", "coordinates": [12.543866, 55.704452]}, "id": "node/340532063"}, {"type": "Feature", "properties": {"@id": "node/340506822", "addr:city": "K\u00f8benhavn N", "addr:country": "DK", "addr:housenumber": "6", "addr:municipality": "K\u00f8benhavn", "addr:postcode": "2200", "addr:street": "Frejasgade", "osak:identifier": "0a3f507a-732e-32b8-e044-0003ba298018", "source": "Danmarks Adresseregister"}, "geometry": {"type": "Point", "coordinates": [12.552305, 55.698498]}, "id": "node/340506822"}, {"type": "Feature", "properties": {"@id": "node/340505057", "addr:city": "Valby", "addr:country": "DK", "addr:housenumber": "28", "addr:municipality": "K\u00f8benhavn", "addr:postcode": "2500", "addr:street": "Folehaven", "osak:identifier": "0a3f507a-6d7f-32b8-e044-0003ba298018", "source": "Danmarks Adresseregister"}, "geometry": {"type": "Point", "coordinates": [12.506024, 55.651529]}, "id": "node/340505057"}, {"type": "Feature", "properties": {"@id": "node/3735018948", "addr:city": "K\u00f8benhavn S", "addr:country": "DK", "addr:housenumber": "22", "addr:municipality": "K\u00f8benhavn", "addr:postcode": "2300", "addr:street": "Hilmar Baunsgaards Boulevard", "osak:identifier": "7777798a-6cdf-41c7-b714-559b4226aa1b", "source": "Danmarks Adresseregister"}, "geometry": {"type": "Point", "coordinates": [12.566525, 55.655621]}, "id": "node/3735018948"}, {"type": "Feature", "properties": {"@id": "node/340623067", "addr:city": "Gentofte", "addr:country": "DK", "addr:housenumber": "7", "addr:municipality": "Gentofte", "addr:postcode": "2820", "addr:street": "L\u00f8venborg Alle", "osak:identifier": "0a3f507b-f14a-32b8-e044-0003ba298018", "source": "Danmarks Adresseregister"}, "geometry": {"type": "Point", "coordinates": [12.544668, 55.742338]}, "id": "node/340623067"}, {"type": "Feature", "properties": {"@id": "node/5643812790", "addr:city": "K\u00f8benhavn S", "addr:country": "DK", "addr:housenumber": "51B", "addr:municipality": "K\u00f8benhavn", "addr:postcode": "2300", "addr:street": "Doris Lessings Vej", "osak:identifier": "c6ccf9eb-ba26-42a2-9f05-913f4adcd042", "source": "Danmarks Adresseregister"}, "geometry": {"type": "Point", "coordinates": [12.575696, 55.637337]}, "id": "node/5643812790"}, {"type": "Feature", "properties": {"@id": "node/340549997", "addr:city": "K\u00f8benhavn \u00d8", "addr:country": "DK", "addr:housenumber": "55", "addr:municipality": "K\u00f8benhavn", "addr:postcode": "2100", "addr:street": "Stockholmsgade", "osak:identifier": "0a3f507a-fec1-32b8-e044-0003ba298018", "source": "Danmarks Adresseregister"}, "geometry": {"type": "Point", "coordinates": [12.58305, 55.692538]}, "id": "node/340549997"}, {"type": "Feature", "properties": {"@id": "node/340514808", "addr:city": "K\u00f8benhavn S", "addr:country": "DK", "addr:housenumber": "22", "addr:municipality": "K\u00f8benhavn", "addr:postcode": "2300", "addr:street": "Hjulmagerstien", "osak:identifier": "0a3f507a-8e05-32b8-e044-0003ba298018", "source": "Danmarks Adresseregister"}, "geometry": {"type": "Point", "coordinates": [12.596393, 55.649927]}, "id": "node/340514808"}, {"type": "Feature", "properties": {"@id": "node/340504159", "addr:city": "K\u00f8benhavn V", "addr:country": "DK", "addr:housenumber": "4", "addr:municipality": "K\u00f8benhavn", "addr:postcode": "1724", "addr:street": "Estlandsgade", "osak:identifier": "0a3f507a-6a6c-32b8-e044-0003ba298018", "source": "Danmarks Adresseregister"}, "geometry": {"type": "Point", "coordinates": [12.552472, 55.668057]}, "id": "node/340504159"}, {"type": "Feature", "properties": {"@id": "node/3728286579", "addr:city": "Hellerup", "addr:country": "DK", "addr:housenumber": "22B", "addr:municipality": "Gentofte", "addr:postcode": "2900", "addr:street": "Gentofte Hospitalsvej", "osak:identifier": "51c37b50-4310-4cfa-9b53-ed1592af03ba", "source": "Danmarks Adresseregister"}, "geometry": {"type": "Point", "coordinates": [12.545827, 55.740502]}, "id": "node/3728286579"}, {"type": "Feature", "properties": {"@id": "node/3735046206", "addr:city": "K\u00f8benhavn K", "addr:country": "DK", "addr:housenumber": "69B", "addr:municipality": "K\u00f8benhavn", "addr:postcode": "1264", "addr:street": "Store Kongensgade", "osak:identifier": "f25a51c8-e453-4aac-9bb8-96d7be6c3584", "source": "Danmarks Adresseregister"}, "geometry": {"type": "Point", "coordinates": [12.588061, 55.684969]}, "id": "node/3735046206"}, {"type": "Feature", "properties": {"@id": "node/7264375977", "addr:city": "Glostrup", "addr:country": "DK", "addr:housenumber": "70", "addr:municipality": "Glostrup", "addr:postcode": "2600", "addr:street": "Stisager", "osak:identifier": "58e3aaba-67a7-67b0-e044-0003ba298018", "source": "Danmarks Adresseregister"}, "geometry": {"type": "Point", "coordinates": [12.422656, 55.683489]}, "id": "node/7264375977"}, {"type": "Feature", "properties": {"@id": "node/7263191888", "addr:city": "K\u00f8benhavn K", "addr:country": "DK", "addr:housenumber": "101", "addr:municipality": "K\u00f8benhavn", "addr:postcode": "1307", "addr:street": "S\u00f8lvgade", "osak:identifier": "0a3f507b-09b6-32b8-e044-0003ba298018", "source": "Danmarks Adresseregister"}, "geometry": {"type": "Point", "coordinates": [12.572215, 55.690257]}, "id": "node/7263191888"}, {"type": "Feature", "properties": {"@id": "node/340500464", "addr:city": "K\u00f8benhavn K", "addr:country": "DK", "addr:housenumber": "19", "addr:municipality": "K\u00f8benhavn", "addr:postcode": "1071", "addr:street": "Dybensgade", "osak:identifier": "0a3f507a-5f5d-32b8-e044-0003ba298018", "source": "Danmarks Adresseregister"}, "geometry": {"type": "Point", "coordinates": [12.582504, 55.677841]}, "id": "node/340500464"}, {"type": "Feature", "properties": {"@id": "node/976355186", "addr:city": "K\u00f8benhavn \u00d8", "addr:country": "DK", "addr:housenumber": "50", "addr:municipality": "K\u00f8benhavn", "addr:place": "Hf. Aldersro", "addr:postcode": "2100", "addr:street": "Lers\u00f8stien", "osak:identifier": "0a3f507a-b62b-32b8-e044-0003ba298018", "source": "Danmarks Adresseregister"}, "geometry": {"type": "Point", "coordinates": [12.548464, 55.712521]}, "id": "node/976355186"}, {"type": "Feature", "properties": {"@id": "node/340499066", "addr:city": "Valby", "addr:country": "DK", "addr:housenumber": "17", "addr:municipality": "K\u00f8benhavn", "addr:postcode": "2500", "addr:street": "Danhaven", "osak:identifier": "0a3f507a-5b32-32b8-e044-0003ba298018", "source": "Danmarks Adresseregister"}, "geometry": {"type": "Point", "coordinates": [12.493692, 55.650904]}, "id": "node/340499066"}, {"type": "Feature", "properties": {"@id": "node/3185300918", "addr:city": "K\u00f8benhavn S", "addr:country": "DK", "addr:housenumber": "34O", "addr:municipality": "K\u00f8benhavn", "addr:postcode": "2300", "addr:street": "Slusevej", "osak:identifier": "d73fe6e8-13fd-4119-8394-c2aa134b31dc", "source": "Danmarks Adresseregister"}, "geometry": {"type": "Point", "coordinates": [12.583686, 55.632153]}, "id": "node/3185300918"}, {"type": "Feature", "properties": {"@id": "node/340600443", "addr:city": "Br\u00f8ndby Strand", "addr:country": "DK", "addr:housenumber": "38", "addr:municipality": "Br\u00f8ndby", "addr:postcode": "2660", "addr:street": "Kisumparken", "osak:identifier": "0a3f507b-a2f3-32b8-e044-0003ba298018", "source": "Danmarks Adresseregister"}, "geometry": {"type": "Point", "coordinates": [12.419021, 55.62423]}, "id": "node/340600443"}, {"type": "Feature", "properties": {"@id": "node/340542068", "addr:city": "K\u00f8benhavn \u00d8", "addr:country": "DK", "addr:housenumber": "46", "addr:municipality": "K\u00f8benhavn", "addr:postcode": "2100", "addr:street": "Rudolph Berghs Gade", "osak:identifier": "0a3f507a-e620-32b8-e044-0003ba298018", "source": "Danmarks Adresseregister"}, "geometry": {"type": "Point", "coordinates": [12.557544, 55.710836]}, "id": "node/340542068"}, {"type": "Feature", "properties": {"@id": "node/340685394", "addr:city": "Hvidovre", "addr:country": "DK", "addr:housenumber": "15", "addr:municipality": "Hvidovre", "addr:postcode": "2650", "addr:street": "Paris Boulevard", "osak:identifier": "0a3f507c-d97b-32b8-e044-0003ba298018", "source": "Danmarks Adresseregister"}, "geometry": {"type": "Point", "coordinates": [12.478609, 55.630289]}, "id": "node/340685394"}, {"type": "Feature", "properties": {"@id": "node/5890548689", "addr:city": "Valby", "addr:country": "DK", "addr:housenumber": "4C", "addr:municipality": "K\u00f8benhavn", "addr:postcode": "2500", "addr:street": "Strindbergsvej", "osak:identifier": "ca96c7f7-faec-44c2-835a-12527de32f40", "source": "Danmarks Adresseregister"}, "geometry": {"type": "Point", "coordinates": [12.520621, 55.65986]}, "id": "node/5890548689"}, {"type": "Feature", "properties": {"@id": "node/753954209", "addr:city": "K\u00f8benhavn NV", "addr:country": "DK", "addr:housenumber": "9", "addr:municipality": "K\u00f8benhavn", "addr:postcode": "2400", "addr:street": "Bygmestervej", "osak:identifier": "0a3f507a-5337-32b8-e044-0003ba298018", "source": "Danmarks Adresseregister"}, "geometry": {"type": "Point", "coordinates": [12.535612, 55.705488]}, "id": "node/753954209"}, {"type": "Feature", "properties": {"@id": "node/340570836", "addr:city": "Valby", "addr:country": "DK", "addr:housenumber": "5", "addr:municipality": "K\u00f8benhavn", "addr:postcode": "2500", "addr:street": "\u00c5lholm Plads", "osak:identifier": "0a3f507b-374d-32b8-e044-0003ba298018", "source": "Danmarks Adresseregister"}, "geometry": {"type": "Point", "coordinates": [12.489491, 55.672111]}, "id": "node/340570836"}, {"type": "Feature", "properties": {"@id": "node/340735055", "addr:city": "R\u00f8dovre", "addr:country": "DK", "addr:housenumber": "59A", "addr:municipality": "R\u00f8dovre", "addr:postcode": "2610", "addr:street": "R\u00f8dager Alle", "osak:identifier": "0a3f507d-91cc-32b8-e044-0003ba298018", "source": "Danmarks Adresseregister"}, "geometry": {"type": "Point", "coordinates": [12.456349, 55.673892]}, "id": "node/340735055"}, {"type": "Feature", "properties": {"@id": "node/340645715", "addr:city": "S\u00f8borg", "addr:country": "DK", "addr:housenumber": "50", "addr:municipality": "Gladsaxe", "addr:postcode": "2860", "addr:street": "Runebergs Alle", "osak:identifier": "0a3f507c-43ba-32b8-e044-0003ba298018", "source": "Danmarks Adresseregister"}, "geometry": {"type": "Point", "coordinates": [12.510027, 55.730073]}, "id": "node/340645715"}, {"type": "Feature", "properties": {"@id": "node/340596759", "addr:city": "Br\u00f8ndby Strand", "addr:country": "DK", "addr:housenumber": "6", "addr:municipality": "Br\u00f8ndby", "addr:postcode": "2660", "addr:street": "Blokhus All\u00e9", "osak:identifier": "0a3f507b-9591-32b8-e044-0003ba298018", "source": "Danmarks Adresseregister"}, "geometry": {"type": "Point", "coordinates": [12.421523, 55.61733]}, "id": "node/340596759"}, {"type": "Feature", "properties": {"@id": "node/340562590", "addr:city": "Br\u00f8nsh\u00f8j", "addr:country": "DK", "addr:housenumber": "134", "addr:municipality": "K\u00f8benhavn", "addr:postcode": "2700", "addr:street": "Veks\u00f8vej", "osak:identifier": "0a3f507b-2144-32b8-e044-0003ba298018", "source": "Danmarks Adresseregister"}, "geometry": {"type": "Point", "coordinates": [12.473044, 55.702475]}, "id": "node/340562590"}, {"type": "Feature", "properties": {"@id": "node/340762740", "addr:city": "Kastrup", "addr:country": "DK", "addr:housenumber": "30", "addr:municipality": "T\u00e5rnby", "addr:postcode": "2770", "addr:street": "Lyngborgvej", "osak:identifier": "0a3f507d-fc59-32b8-e044-0003ba298018", "source": "Danmarks Adresseregister"}, "geometry": {"type": "Point", "coordinates": [12.619458, 55.620094]}, "id": "node/340762740"}, {"type": "Feature", "properties": {"@id": "node/340659743", "addr:city": "Herlev", "addr:country": "DK", "addr:housenumber": "7", "addr:municipality": "Herlev", "addr:postcode": "2730", "addr:street": "Fl\u00f8jtevej", "osak:identifier": "0a3f507c-78ae-32b8-e044-0003ba298018", "source": "Danmarks Adresseregister"}, "geometry": {"type": "Point", "coordinates": [12.441277, 55.716901]}, "id": "node/340659743"}, {"type": "Feature", "properties": {"@id": "node/340728768", "addr:city": "R\u00f8dovre", "addr:country": "DK", "addr:housenumber": "40B", "addr:municipality": "R\u00f8dovre", "addr:postcode": "2610", "addr:street": "Damhusdalen", "osak:identifier": "0a3f507d-7a5b-32b8-e044-0003ba298018", "source": "Danmarks Adresseregister"}, "geometry": {"type": "Point", "coordinates": [12.476577, 55.671152]}, "id": "node/340728768"}, {"type": "Feature", "properties": {"@id": "node/340539056", "addr:city": "K\u00f8benhavn S", "addr:country": "DK", "addr:housenumber": "32", "addr:municipality": "K\u00f8benhavn", "addr:postcode": "2300", "addr:street": "Polensgade", "osak:identifier": "0a3f507a-db37-32b8-e044-0003ba298018", "source": "Danmarks Adresseregister"}, "geometry": {"type": "Point", "coordinates": [12.615149, 55.664137]}, "id": "node/340539056"}, {"type": "Feature", "properties": {"@id": "node/340523146", "addr:city": "Br\u00f8nsh\u00f8j", "addr:country": "DK", "addr:housenumber": "8", "addr:municipality": "K\u00f8benhavn", "addr:postcode": "2700", "addr:street": "Kildebr\u00f8ndevej", "osak:identifier": "0a3f507a-a568-32b8-e044-0003ba298018", "source": "Danmarks Adresseregister"}, "geometry": {"type": "Point", "coordinates": [12.484341, 55.707324]}, "id": "node/340523146"}, {"type": "Feature", "properties": {"@id": "node/1520470053", "addr:city": "K\u00f8benhavn SV", "addr:country": "DK", "addr:housenumber": "1A", "addr:municipality": "K\u00f8benhavn", "addr:postcode": "2450", "addr:street": "Julius Andersens Vej", "osak:identifier": "6294a2e4-fb9f-4f9c-a2d8-d84f94ee3d7c", "source": "Danmarks Adresseregister"}, "geometry": {"type": "Point", "coordinates": [12.515276, 55.648978]}, "id": "node/1520470053"}, {"type": "Feature", "properties": {"@id": "node/340650635", "addr:city": "S\u00f8borg", "addr:country": "DK", "addr:housenumber": "126", "addr:municipality": "Gladsaxe", "addr:postcode": "2860", "addr:street": "\u00c6rtemarken", "osak:identifier": "0a3f507c-568e-32b8-e044-0003ba298018", "source": "Danmarks Adresseregister"}, "geometry": {"type": "Point", "coordinates": [12.473994, 55.743342]}, "id": "node/340650635"}, {"type": "Feature", "properties": {"@id": "node/340500317", "addr:city": "K\u00f8benhavn V", "addr:country": "DK", "addr:housenumber": "38", "addr:municipality": "K\u00f8benhavn", "addr:postcode": "1721", "addr:street": "Dybb\u00f8lsgade", "osak:identifier": "0a3f507a-5edb-32b8-e044-0003ba298018", "source": "Danmarks Adresseregister"}, "geometry": {"type": "Point", "coordinates": [12.553116, 55.666386]}, "id": "node/340500317"}, {"type": "Feature", "properties": {"@id": "node/3787778015", "addr:city": "Hvidovre", "addr:country": "DK", "addr:housenumber": "133", "addr:municipality": "Hvidovre", "addr:postcode": "2650", "addr:street": "Hf. Svar\u00f8", "osak:identifier": "5b04cc81-ccc5-43e7-9c24-9d1af692f3ee", "source": "Danmarks Adresseregister"}, "geometry": {"type": "Point", "coordinates": [12.46673, 55.643845]}, "id": "node/3787778015"}, {"type": "Feature", "properties": {"@id": "node/340557688", "addr:city": "Vanl\u00f8se", "addr:country": "DK", "addr:housenumber": "39", "addr:municipality": "K\u00f8benhavn", "addr:postcode": "2720", "addr:street": "Tybjergvej", "osak:identifier": "0a3f507b-1680-32b8-e044-0003ba298018", "source": "Danmarks Adresseregister"}, "geometry": {"type": "Point", "coordinates": [12.473357, 55.693675]}, "id": "node/340557688"}, {"type": "Feature", "properties": {"@id": "node/340513390", "addr:city": "Br\u00f8nsh\u00f8j", "addr:country": "DK", "addr:housenumber": "130", "addr:municipality": "K\u00f8benhavn", "addr:postcode": "2700", "addr:street": "Hegnshusene", "osak:identifier": "0a3f507a-8905-32b8-e044-0003ba298018", "source": "Danmarks Adresseregister"}, "geometry": {"type": "Point", "coordinates": [12.495886, 55.696841]}, "id": "node/340513390"}, {"type": "Feature", "properties": {"@id": "node/340552950", "addr:city": "K\u00f8benhavn \u00d8", "addr:country": "DK", "addr:housenumber": "18", "addr:municipality": "K\u00f8benhavn", "addr:postcode": "2100", "addr:street": "Svanev\u00e6nget", "osak:identifier": "0a3f507b-073b-32b8-e044-0003ba298018", "source": "Danmarks Adresseregister"}, "geometry": {"type": "Point", "coordinates": [12.579791, 55.717429]}, "id": "node/340552950"}, {"type": "Feature", "properties": {"@id": "node/340732306", "addr:city": "R\u00f8dovre", "addr:country": "DK", "addr:housenumber": "49", "addr:municipality": "R\u00f8dovre", "addr:postcode": "2610", "addr:street": "K\u00e6rbyvej", "osak:identifier": "0a3f507d-87f3-32b8-e044-0003ba298018", "source": "Danmarks Adresseregister"}, "geometry": {"type": "Point", "coordinates": [12.456601, 55.697101]}, "id": "node/340732306"}, {"type": "Feature", "properties": {"@id": "node/3735018301", "addr:city": "Valby", "addr:country": "DK", "addr:housenumber": "19Z", "addr:municipality": "K\u00f8benhavn", "addr:postcode": "2500", "addr:street": "Carl Jacobsens Vej", "osak:identifier": "f74c0c24-48ae-4428-a04a-bdcf38aa2d72", "source": "Danmarks Adresseregister"}, "geometry": {"type": "Point", "coordinates": [12.518463, 55.653174]}, "id": "node/3735018301"}, {"type": "Feature", "properties": {"@id": "node/340663239", "addr:city": "Herlev", "addr:country": "DK", "addr:housenumber": "41B", "addr:municipality": "Herlev", "addr:postcode": "2730", "addr:street": "Meteorvej", "osak:identifier": "0a3f507c-85fc-32b8-e044-0003ba298018", "source": "Danmarks Adresseregister"}, "geometry": {"type": "Point", "coordinates": [12.440538, 55.737037]}, "id": "node/340663239"}, {"type": "Feature", "properties": {"@id": "node/340635132", "addr:city": "S\u00f8borg", "addr:country": "DK", "addr:housenumber": "260", "addr:municipality": "Gladsaxe", "addr:postcode": "2860", "addr:street": "Buddingevej", "osak:identifier": "0a3f507c-1c69-32b8-e044-0003ba298018", "source": "Danmarks Adresseregister"}, "geometry": {"type": "Point", "coordinates": [12.493898, 55.747859]}, "id": "node/340635132"}, {"type": "Feature", "properties": {"@id": "node/340619217", "addr:city": "Hellerup", "addr:country": "DK", "addr:housenumber": "24", "addr:municipality": "Gentofte", "addr:postcode": "2900", "addr:street": "Hellerupvej", "osak:identifier": "2770a37a-f1e9-4f3f-abd3-efd1bcd281f6", "source": "Danmarks Adresseregister"}, "geometry": {"type": "Point", "coordinates": [12.570399, 55.732201]}, "id": "node/340619217"}, {"type": "Feature", "properties": {"@id": "node/340647212", "addr:city": "S\u00f8borg", "addr:country": "DK", "addr:housenumber": "55", "addr:municipality": "Gladsaxe", "addr:postcode": "2860", "addr:street": "Stavnsbjerg Alle", "osak:identifier": "0a3f507c-496c-32b8-e044-0003ba298018", "source": "Danmarks Adresseregister"}, "geometry": {"type": "Point", "coordinates": [12.463593, 55.722172]}, "id": "node/340647212"}, {"type": "Feature", "properties": {"@id": "node/340736610", "addr:city": "R\u00f8dovre", "addr:country": "DK", "addr:housenumber": "151", "addr:municipality": "R\u00f8dovre", "addr:postcode": "2610", "addr:street": "Slotsherrens Have", "osak:identifier": "0a3f507d-9767-32b8-e044-0003ba298018", "source": "Danmarks Adresseregister"}, "geometry": {"type": "Point", "coordinates": [12.458668, 55.703363]}, "id": "node/340736610"}, {"type": "Feature", "properties": {"@id": "node/7264333671", "addr:city": "K\u00f8benhavn SV", "addr:country": "DK", "addr:housenumber": "22", "addr:municipality": "K\u00f8benhavn", "addr:postcode": "2450", "addr:street": "Haveforeningen Havebyen Mozart", "osak:identifier": "0a3f507b-3d9d-32b8-e044-0003ba298018", "source": "Danmarks Adresseregister"}, "geometry": {"type": "Point", "coordinates": [12.534541, 55.643961]}, "id": "node/7264333671"}, {"type": "Feature", "properties": {"@id": "node/340637673", "addr:city": "S\u00f8borg", "addr:country": "DK", "addr:housenumber": "12", "addr:municipality": "Gladsaxe", "addr:postcode": "2860", "addr:street": "Gr\u00e6smarken", "osak:identifier": "0a3f507c-2518-32b8-e044-0003ba298018", "source": "Danmarks Adresseregister"}, "geometry": {"type": "Point", "coordinates": [12.487607, 55.742829]}, "id": "node/340637673"}, {"type": "Feature", "properties": {"@id": "node/6257703087", "addr:city": "Hvidovre", "addr:country": "DK", "addr:housenumber": "50", "addr:municipality": "Hvidovre", "addr:postcode": "2650", "addr:street": "Holb\u00e6kmotorvejen", "osak:identifier": "ef811758-16cf-4536-9039-d0d369eac7f0", "source": "Danmarks Adresseregister"}, "geometry": {"type": "Point", "coordinates": [12.469006, 55.651072]}, "id": "node/6257703087"}, {"type": "Feature", "properties": {"@id": "node/7824357486", "addr:city": "K\u00f8benhavn SV", "addr:country": "DK", "addr:housenumber": "19", "addr:municipality": "K\u00f8benhavn", "addr:postcode": "2450", "addr:street": "George Marshalls Vej", "osak:identifier": "c7cd3403-c810-431c-ad3f-8fa77c67739a", "source": "Danmarks Adresseregister"}, "geometry": {"type": "Point", "coordinates": [12.561905, 55.658849]}, "id": "node/7824357486"}, {"type": "Feature", "properties": {"@id": "node/340539297", "addr:city": "K\u00f8benhavn S", "addr:country": "DK", "addr:housenumber": "68", "addr:municipality": "K\u00f8benhavn", "addr:postcode": "2300", "addr:street": "Prags Boulevard", "osak:identifier": "0a3f507a-dbea-32b8-e044-0003ba298018", "source": "Danmarks Adresseregister"}, "geometry": {"type": "Point", "coordinates": [12.61564, 55.667818]}, "id": "node/340539297"}, {"type": "Feature", "properties": {"@id": "node/340574569", "addr:city": "Frederiksberg", "addr:country": "DK", "addr:housenumber": "124", "addr:municipality": "Frederiksberg", "addr:postcode": "2000", "addr:street": "Falkoner Alle", "osak:identifier": "0a3f507b-45ea-32b8-e044-0003ba298018", "source": "Danmarks Adresseregister"}, "geometry": {"type": "Point", "coordinates": [12.541647, 55.687255]}, "id": "node/340574569"}, {"type": "Feature", "properties": {"@id": "node/340535513", "addr:city": "Br\u00f8nsh\u00f8j", "addr:country": "DK", "addr:housenumber": "36", "addr:municipality": "K\u00f8benhavn", "addr:postcode": "2700", "addr:street": "N\u00e6sbyholmvej", "osak:identifier": "0a3f507a-cf2b-32b8-e044-0003ba298018", "source": "Danmarks Adresseregister"}, "geometry": {"type": "Point", "coordinates": [12.4998, 55.699962]}, "id": "node/340535513"}, {"type": "Feature", "properties": {"@id": "node/340543253", "addr:city": "Vanl\u00f8se", "addr:country": "DK", "addr:housenumber": "15B", "addr:municipality": "K\u00f8benhavn", "addr:postcode": "2720", "addr:street": "R\u00f8dtj\u00f8rnevej", "osak:identifier": "0a3f507a-ea5f-32b8-e044-0003ba298018", "source": "Danmarks Adresseregister"}, "geometry": {"type": "Point", "coordinates": [12.479851, 55.678462]}, "id": "node/340543253"}, {"type": "Feature", "properties": {"@id": "node/340564616", "addr:city": "K\u00f8benhavn V", "addr:country": "DK", "addr:housenumber": "140C", "addr:municipality": "K\u00f8benhavn", "addr:postcode": "1620", "addr:street": "Vesterbrogade", "osak:identifier": "0a3f507b-2423-32b8-e044-0003ba298018", "source": "Danmarks Adresseregister"}, "geometry": {"type": "Point", "coordinates": [12.541301, 55.670843]}, "id": "node/340564616"}, {"type": "Feature", "properties": {"@id": "node/340642113", "addr:city": "S\u00f8borg", "addr:country": "DK", "addr:housenumber": "23", "addr:municipality": "Gladsaxe", "addr:postcode": "2860", "addr:street": "Lilleg\u00e5rds Alle", "osak:identifier": "0a3f507c-35d1-32b8-e044-0003ba298018", "source": "Danmarks Adresseregister"}, "geometry": {"type": "Point", "coordinates": [12.469199, 55.720973]}, "id": "node/340642113"}, {"type": "Feature", "properties": {"@id": "node/340762671", "addr:city": "Kastrup", "addr:country": "DK", "addr:housenumber": "56", "addr:municipality": "T\u00e5rnby", "addr:postcode": "2770", "addr:street": "Listedvej", "osak:identifier": "0a3f507d-fc00-32b8-e044-0003ba298018", "source": "Danmarks Adresseregister"}, "geometry": {"type": "Point", "coordinates": [12.614674, 55.631887]}, "id": "node/340762671"}, {"type": "Feature", "properties": {"@id": "node/340497256", "addr:city": "K\u00f8benhavn \u00d8", "addr:country": "DK", "addr:housenumber": "35A", "addr:municipality": "K\u00f8benhavn", "addr:postcode": "2100", "addr:street": "Carl Nielsens All\u00e9", "osak:identifier": "0a3f507a-562b-32b8-e044-0003ba298018", "source": "Danmarks Adresseregister"}, "geometry": {"type": "Point", "coordinates": [12.581148, 55.713715]}, "id": "node/340497256"}, {"type": "Feature", "properties": {"@id": "node/737118231", "addr:city": "K\u00f8benhavn \u00d8", "addr:country": "DK", "addr:housenumber": "5E", "addr:municipality": "K\u00f8benhavn", "addr:postcode": "2100", "addr:street": "Sundkrogsgade", "osak:identifier": "0a3f507b-064d-32b8-e044-0003ba298018", "source": "Danmarks Adresseregister"}, "geometry": {"type": "Point", "coordinates": [12.591134, 55.710634]}, "id": "node/737118231"}, {"type": "Feature", "properties": {"@id": "node/5909609185", "addr:city": "K\u00f8benhavn SV", "addr:country": "DK", "addr:housenumber": "32", "addr:municipality": "K\u00f8benhavn", "addr:postcode": "2450", "addr:street": "Hf. Sydhavn", "osak:identifier": "bd6c5dec-0db8-4007-aad1-4917f76edb92", "source": "Danmarks Adresseregister"}, "geometry": {"type": "Point", "coordinates": [12.537255, 55.64448]}, "id": "node/5909609185"}, {"type": "Feature", "properties": {"@id": "node/340499294", "addr:city": "K\u00f8benhavn V", "addr:country": "DK", "addr:housenumber": "4", "addr:municipality": "K\u00f8benhavn", "addr:postcode": "1556", "addr:street": "Dantes Plads", "osak:identifier": "0a3f507a-5c11-32b8-e044-0003ba298018", "source": "Danmarks Adresseregister"}, "geometry": {"type": "Point", "coordinates": [12.573287, 55.673775]}, "id": "node/340499294"}, {"type": "Feature", "properties": {"@id": "node/340565664", "addr:city": "K\u00f8benhavn V", "addr:country": "DK", "addr:housenumber": "90", "addr:municipality": "K\u00f8benhavn", "addr:postcode": "1552", "addr:street": "Vester Voldgade", "osak:identifier": "0a3f507b-2604-32b8-e044-0003ba298018", "source": "Danmarks Adresseregister"}, "geometry": {"type": "Point", "coordinates": [12.573598, 55.674004]}, "id": "node/340565664"}, {"type": "Feature", "properties": {"@id": "node/340551168", "addr:city": "K\u00f8benhavn K", "addr:country": "DK", "addr:housenumber": "38D", "addr:municipality": "K\u00f8benhavn", "addr:postcode": "1401", "addr:street": "Strandgade", "osak:identifier": "0a3f507b-01b2-32b8-e044-0003ba298018", "source": "Danmarks Adresseregister"}, "geometry": {"type": "Point", "coordinates": [12.591482, 55.674581]}, "id": "node/340551168"}, {"type": "Feature", "properties": {"@id": "node/340729627", "addr:city": "R\u00f8dovre", "addr:country": "DK", "addr:housenumber": "87", "addr:municipality": "R\u00f8dovre", "addr:postcode": "2610", "addr:street": "Fortvej", "osak:identifier": "0a3f507d-7da0-32b8-e044-0003ba298018", "source": "Danmarks Adresseregister"}, "geometry": {"type": "Point", "coordinates": [12.446537, 55.69525]}, "id": "node/340729627"}, {"type": "Feature", "properties": {"@id": "node/340763719", "addr:city": "Kastrup", "addr:country": "DK", "addr:housenumber": "8", "addr:municipality": "T\u00e5rnby", "addr:postcode": "2770", "addr:street": "Nyb\u00f8l Alle", "osak:identifier": "0a3f507d-ffa3-32b8-e044-0003ba298018", "source": "Danmarks Adresseregister"}, "geometry": {"type": "Point", "coordinates": [12.582187, 55.617876]}, "id": "node/340763719"}, {"type": "Feature", "properties": {"@id": "node/730861906", "addr:city": "K\u00f8benhavn S", "addr:country": "DK", "addr:housenumber": "8", "addr:municipality": "K\u00f8benhavn", "addr:postcode": "2300", "addr:street": "Nordre Digevej", "osak:identifier": "0a3f507a-cb45-32b8-e044-0003ba298018", "source": "Danmarks Adresseregister"}, "geometry": {"type": "Point", "coordinates": [12.589331, 55.653121]}, "id": "node/730861906"}, {"type": "Feature", "properties": {"@id": "node/340533139", "addr:city": "Valby", "addr:country": "DK", "addr:housenumber": "117", "addr:municipality": "K\u00f8benhavn", "addr:postcode": "2500", "addr:street": "Nakskovvej", "osak:identifier": "0a3f507a-c84a-32b8-e044-0003ba298018", "source": "Danmarks Adresseregister"}, "geometry": {"type": "Point", "coordinates": [12.485707, 55.66464]}, "id": "node/340533139"}, {"type": "Feature", "properties": {"@id": "node/340567501", "addr:city": "K\u00f8benhavn S", "addr:country": "DK", "addr:housenumber": "1", "addr:municipality": "K\u00f8benhavn", "addr:postcode": "2300", "addr:street": "Willumsvej", "osak:identifier": "0a3f507b-2b90-32b8-e044-0003ba298018", "source": "Danmarks Adresseregister"}, "geometry": {"type": "Point", "coordinates": [12.617564, 55.640907]}, "id": "node/340567501"}, {"type": "Feature", "properties": {"@id": "node/340727671", "addr:city": "R\u00f8dovre", "addr:country": "DK", "addr:housenumber": "38", "addr:municipality": "R\u00f8dovre", "addr:postcode": "2610", "addr:street": "Bj\u00f8dstrupvej", "osak:identifier": "0a3f507d-772c-32b8-e044-0003ba298018", "source": "Danmarks Adresseregister"}, "geometry": {"type": "Point", "coordinates": [12.443212, 55.682211]}, "id": "node/340727671"}, {"type": "Feature", "properties": {"@id": "node/340537183", "addr:city": "K\u00f8benhavn SV", "addr:country": "DK", "addr:housenumber": "36", "addr:municipality": "K\u00f8benhavn", "addr:postcode": "2450", "addr:street": "Otto Busses Vej", "osak:identifier": "0a3f507a-d523-32b8-e044-0003ba298018", "source": "Danmarks Adresseregister"}, "geometry": {"type": "Point", "coordinates": [12.543349, 55.660425]}, "id": "node/340537183"}, {"type": "Feature", "properties": {"@id": "node/9018888019", "addr:city": "Valby", "addr:country": "DK", "addr:housenumber": "79", "addr:municipality": "K\u00f8benhavn", "addr:postcode": "2500", "addr:street": "Ingrid Marievej", "osak:identifier": "7021ce3f-3131-4cc0-99ce-f7d644cf3ac2", "source": "Danmarks Adresseregister"}, "geometry": {"type": "Point", "coordinates": [12.507263, 55.656001]}, "id": "node/9018888019"}, {"type": "Feature", "properties": {"@id": "node/4136712450", "addr:city": "Valby", "addr:country": "DK", "addr:housenumber": "22W", "addr:municipality": "K\u00f8benhavn", "addr:postcode": "2500", "addr:street": "Gammel K\u00f8ge Landevej", "osak:identifier": "c6c74b3e-1b08-48fa-9012-cdd6d27fa2ba", "source": "Danmarks Adresseregister"}, "geometry": {"type": "Point", "coordinates": [12.514329, 55.658992]}, "id": "node/4136712450"}, {"type": "Feature", "properties": {"@id": "node/340649562", "addr:city": "S\u00f8borg", "addr:country": "DK", "addr:housenumber": "228", "addr:municipality": "Gladsaxe", "addr:postcode": "2860", "addr:street": "Vadg\u00e5rdsvej", "osak:identifier": "0a3f507c-529b-32b8-e044-0003ba298018", "source": "Danmarks Adresseregister"}, "geometry": {"type": "Point", "coordinates": [12.487474, 55.749221]}, "id": "node/340649562"}, {"type": "Feature", "properties": {"@id": "node/3185308551", "addr:city": "K\u00f8benhavn \u00d8", "addr:country": "DK", "addr:housenumber": "47A", "addr:municipality": "K\u00f8benhavn", "addr:postcode": "2100", "addr:street": "Langelinie All\u00e9", "osak:identifier": "661ab6ff-285a-4b75-b41b-3fa293a664aa", "source": "Danmarks Adresseregister"}, "geometry": {"type": "Point", "coordinates": [12.600418, 55.702114]}, "id": "node/3185308551"}, {"type": "Feature", "properties": {"@id": "node/3391627961", "addr:city": "K\u00f8benhavn S", "addr:country": "DK", "addr:housenumber": "64", "addr:municipality": "K\u00f8benhavn", "addr:postcode": "2300", "addr:street": "Vestermarksvej", "osak:identifier": "0a3f507b-2574-32b8-e044-0003ba298018", "source": "Danmarks Adresseregister"}, "geometry": {"type": "Point", "coordinates": [12.587218, 55.643583]}, "id": "node/3391627961"}, {"type": "Feature", "properties": {"@id": "node/340754620", "addr:city": "Kastrup", "addr:country": "DK", "addr:housenumber": "5", "addr:municipality": "T\u00e5rnby", "addr:postcode": "2770", "addr:street": "Akelejevej", "osak:identifier": "0a3f507d-dea5-32b8-e044-0003ba298018", "source": "Danmarks Adresseregister"}, "geometry": {"type": "Point", "coordinates": [12.634449, 55.636527]}, "id": "node/340754620"}, {"type": "Feature", "properties": {"@id": "node/340530852", "addr:city": "Valby", "addr:country": "DK", "addr:housenumber": "94", "addr:municipality": "K\u00f8benhavn", "addr:postcode": "2500", "addr:street": "Maribovej", "osak:identifier": "0a3f507a-c0b5-32b8-e044-0003ba298018", "source": "Danmarks Adresseregister"}, "geometry": {"type": "Point", "coordinates": [12.491747, 55.66453]}, "id": "node/340530852"}, {"type": "Feature", "properties": {"@id": "node/340552964", "addr:city": "K\u00f8benhavn \u00d8", "addr:country": "DK", "addr:housenumber": "32", "addr:municipality": "K\u00f8benhavn", "addr:postcode": "2100", "addr:street": "Svanev\u00e6nget", "osak:identifier": "0a3f507b-0744-32b8-e044-0003ba298018", "source": "Danmarks Adresseregister"}, "geometry": {"type": "Point", "coordinates": [12.580787, 55.71752]}, "id": "node/340552964"}, {"type": "Feature", "properties": {"@id": "node/340603705", "addr:city": "Br\u00f8ndby", "addr:country": "DK", "addr:housenumber": "52", "addr:municipality": "Br\u00f8ndby", "addr:postcode": "2605", "addr:street": "Torvestien", "osak:identifier": "0a3f507b-af0b-32b8-e044-0003ba298018", "source": "Danmarks Adresseregister"}, "geometry": {"type": "Point", "coordinates": [12.438712, 55.660672]}, "id": "node/340603705"}, {"type": "Feature", "properties": {"@id": "node/340639186", "addr:city": "S\u00f8borg", "addr:country": "DK", "addr:housenumber": "18", "addr:municipality": "Gladsaxe", "addr:postcode": "2860", "addr:street": "H\u00f8jtoftevej", "osak:identifier": "0a3f507c-2a98-32b8-e044-0003ba298018", "source": "Danmarks Adresseregister"}, "geometry": {"type": "Point", "coordinates": [12.507044, 55.72512]}, "id": "node/340639186"}, {"type": "Feature", "properties": {"@id": "node/340629879", "addr:city": "Hellerup", "addr:country": "DK", "addr:housenumber": "21", "addr:municipality": "Gentofte", "addr:postcode": "2900", "addr:street": "Svalevej", "osak:identifier": "0a3f507c-0879-32b8-e044-0003ba298018", "source": "Danmarks Adresseregister"}, "geometry": {"type": "Point", "coordinates": [12.560481, 55.746339]}, "id": "node/340629879"}, {"type": "Feature", "properties": {"@id": "node/340680521", "addr:city": "Hvidovre", "addr:country": "DK", "addr:housenumber": "38", "addr:municipality": "Hvidovre", "addr:postcode": "2650", "addr:street": "Gurrevej", "osak:identifier": "0a3f507c-c6df-32b8-e044-0003ba298018", "source": "Danmarks Adresseregister"}, "geometry": {"type": "Point", "coordinates": [12.473112, 55.637829]}, "id": "node/340680521"}, {"type": "Feature", "properties": {"@id": "node/3197242238", "addr:city": "S\u00f8borg", "addr:country": "DK", "addr:housenumber": "32", "addr:municipality": "Gladsaxe", "addr:postcode": "2860", "addr:street": "Pileg\u00e5rdens Haveby", "osak:identifier": "7ca817ab-10b9-4aac-9807-2ada8cc87c3b", "source": "Danmarks Adresseregister"}, "geometry": {"type": "Point", "coordinates": [12.459374, 55.720021]}, "id": "node/3197242238"}, {"type": "Feature", "properties": {"@id": "node/340580873", "addr:city": "Frederiksberg", "addr:country": "DK", "addr:housenumber": "21B", "addr:municipality": "Frederiksberg", "addr:postcode": "2000", "addr:street": "Sindshvilevej", "osak:identifier": "0a3f507b-5b61-32b8-e044-0003ba298018", "source": "Danmarks Adresseregister"}, "geometry": {"type": "Point", "coordinates": [12.534354, 55.685472]}, "id": "node/340580873"}, {"type": "Feature", "properties": {"@id": "node/340571543", "addr:city": "K\u00f8benhavn S", "addr:country": "DK", "addr:housenumber": "36", "addr:municipality": "K\u00f8benhavn", "addr:postcode": "2300", "addr:street": "Haveforeningen Formosa", "osak:identifier": "0a3f507b-3c49-32b8-e044-0003ba298018", "source": "Danmarks Adresseregister"}, "geometry": {"type": "Point", "coordinates": [12.634157, 55.649964]}, "id": "node/340571543"}, {"type": "Feature", "properties": {"@id": "node/340534136", "addr:city": "K\u00f8benhavn \u00d8", "addr:country": "DK", "addr:housenumber": "12", "addr:municipality": "K\u00f8benhavn", "addr:postcode": "2100", "addr:street": "Nordre Frihavnsgade", "osak:identifier": "0a3f507a-cba8-32b8-e044-0003ba298018", "source": "Danmarks Adresseregister"}, "geometry": {"type": "Point", "coordinates": [12.578914, 55.700188]}, "id": "node/340534136"}, {"type": "Feature", "properties": {"@id": "node/340539989", "addr:city": "K\u00f8benhavn NV", "addr:country": "DK", "addr:housenumber": "22", "addr:municipality": "K\u00f8benhavn", "addr:postcode": "2400", "addr:street": "P\u00e5 Bjerget", "osak:identifier": "0a3f507a-de29-32b8-e044-0003ba298018", "source": "Danmarks Adresseregister"}, "geometry": {"type": "Point", "coordinates": [12.534817, 55.716349]}, "id": "node/340539989"}, {"type": "Feature", "properties": {"@id": "node/340675888", "addr:city": "Hvidovre", "addr:country": "DK", "addr:housenumber": "45", "addr:municipality": "Hvidovre", "addr:postcode": "2650", "addr:street": "Agermosen", "osak:identifier": "0a3f507c-b530-32b8-e044-0003ba298018", "source": "Danmarks Adresseregister"}, "geometry": {"type": "Point", "coordinates": [12.457612, 55.653767]}, "id": "node/340675888"}, {"type": "Feature", "properties": {"@id": "node/340602784", "addr:city": "Br\u00f8ndby", "addr:country": "DK", "addr:housenumber": "19", "addr:municipality": "Br\u00f8ndby", "addr:postcode": "2605", "addr:street": "Skyttedammen", "osak:identifier": "0a3f507b-ac13-32b8-e044-0003ba298018", "source": "Danmarks Adresseregister"}, "geometry": {"type": "Point", "coordinates": [12.429517, 55.66233]}, "id": "node/340602784"}, {"type": "Feature", "properties": {"@id": "node/340528458", "addr:city": "Valby", "addr:country": "DK", "addr:housenumber": "44", "addr:municipality": "K\u00f8benhavn", "addr:postcode": "2500", "addr:street": "Lindebugten", "osak:identifier": "0a3f507a-b8b2-32b8-e044-0003ba298018", "source": "Danmarks Adresseregister"}, "geometry": {"type": "Point", "coordinates": [12.485218, 55.670716]}, "id": "node/340528458"}, {"type": "Feature", "properties": {"@id": "node/1504119981", "addr:city": "K\u00f8benhavn SV", "addr:country": "DK", "addr:housenumber": "48", "addr:municipality": "K\u00f8benhavn", "addr:postcode": "2450", "addr:street": "Skibbroen", "osak:identifier": "5c9df22e-bfa9-46a2-a3a8-b3527508b996", "source": "Danmarks Adresseregister"}, "geometry": {"type": "Point", "coordinates": [12.56002, 55.65988]}, "id": "node/1504119981"},