{"type": "FeatureCollection", "generator": "overpass-ide", "copyright": "The data included in this document is from www.openstreetmap.org. The data is made available under ODbL.", "timestamp": "2023-07-04T20:11:30Z", "features": [{"type": "Feature", "properties": {"@id": "node/342369917", "addr:city": "Fan\u00f8", "addr:country": "DK", "addr:housenumber": "28I", "addr:municipality": "Fan\u00f8", "addr:place": "Nordby", "addr:postcode": "6720", "addr:street": "Kallesbjergvej", "osak:identifier": "0a3f508d-ddcb-32b8-e044-0003ba298018", "source": "Danmarks Adresseregister"}, "geometry": {"type": "Point", "coordinates": [8.390397, 55.444235]}, "id": "node/342369917"}, {"type": "Feature", "properties": {"@id": "node/342325708", "addr:city": "Esbjerg \u00d8", "addr:country": "DK", "addr:housenumber": "15", "addr:municipality": "Esbjerg", "addr:postcode": "6705", "addr:street": "Elmegade", "osak:identifier": "0a3f508d-73e1-32b8-e044-0003ba298018", "source": "Danmarks Adresseregister"}, "geometry": {"type": "Point", "coordinates": [8.477692, 55.478434]}, "id": "node/342325708"}, {"type": "Feature", "properties": {"@id": "node/1406499497", "addr:city": "Esbjerg \u00d8", "addr:country": "DK", "addr:housenumber": "9", "addr:municipality": "Esbjerg", "addr:postcode": "6705", "addr:street": "R\u00f8llikevej", "osak:identifier": "0a3f508d-b0b6-32b8-e044-0003ba298018", "source": "Danmarks Adresseregister"}, "geometry": {"type": "Point", "coordinates": [8.485431, 55.486064]}, "id": "node/1406499497"}, {"type": "Feature", "properties": {"@id": "node/342340530", "addr:city": "Esbjerg V", "addr:country": "DK", "addr:housenumber": "72", "addr:municipality": "Esbjerg", "addr:postcode": "6710", "addr:street": "Krebseparken", "osak:identifier": "0a3f508d-9a10-32b8-e044-0003ba298018", "source": "Danmarks Adresseregister"}, "geometry": {"type": "Point", "coordinates": [8.428518, 55.500001]}, "id": "node/342340530"}, {"type": "Feature", "properties": {"@id": "node/5936457188", "addr:city": "Esbjerg N", "addr:country": "DK", "addr:housenumber": "5A", "addr:municipality": "Esbjerg", "addr:postcode": "6715", "addr:street": "\u00d8resundsvej", "osak:identifier": "8cca2db9-9a9a-4100-b9b8-117390e4c028", "source": "Danmarks Adresseregister"}, "geometry": {"type": "Point", "coordinates": [8.47028, 55.509993]}, "id": "node/5936457188"}, {"type": "Feature", "properties": {"@id": "node/3177816466", "addr:city": "Esbjerg", "addr:country": "DK", "addr:housenumber": "79", "addr:municipality": "Esbjerg", "addr:postcode": "6700", "addr:street": "M\u00e5geparken", "osak:identifier": "7766457e-7060-4628-924c-8b7339d4c7fc", "source": "Danmarks Adresseregister"}, "geometry": {"type": "Point", "coordinates": [8.445841, 55.480536]}, "id": "node/3177816466"}, {"type": "Feature", "properties": {"@id": "node/1406462003", "addr:city": "Esbjerg \u00d8", "addr:country": "DK", "addr:housenumber": "17", "addr:municipality": "Esbjerg", "addr:postcode": "6705", "addr:street": "Fuglebakkevej", "osak:identifier": "0a3f508d-7ad7-32b8-e044-0003ba298018", "source": "Danmarks Adresseregister"}, "geometry": {"type": "Point", "coordinates": [8.4717, 55.485589]}, "id": "node/1406462003"}, {"type": "Feature", "properties": {"@id": "node/1406471525", "addr:city": "Esbjerg", "addr:country": "DK", "addr:housenumber": "23", "addr:municipality": "Esbjerg", "addr:postcode": "6700", "addr:street": "Gr\u00e5dybet", "osak:identifier": "0a3f508d-858a-32b8-e044-0003ba298018", "source": "Danmarks Adresseregister"}, "geometry": {"type": "Point", "coordinates": [8.442486, 55.477575]}, "id": "node/1406471525"}, {"type": "Feature", "properties": {"@id": "node/342360437", "addr:city": "Esbjerg \u00d8", "addr:country": "DK", "addr:housenumber": "20", "addr:municipality": "Esbjerg", "addr:postcode": "6705", "addr:street": "S\u00f8ndre Skadsvej", "osak:identifier": "0a3f508d-c5fb-32b8-e044-0003ba298018", "source": "Danmarks Adresseregister"}, "geometry": {"type": "Point", "coordinates": [8.55873, 55.508224]}, "id": "node/342360437"}, {"type": "Feature", "properties": {"@id": "node/342358581", "addr:city": "Esbjerg V", "addr:country": "DK", "addr:housenumber": "24", "addr:municipality": "Esbjerg", "addr:postcode": "6710", "addr:street": "Sus\u00e5v\u00e6nget", "osak:identifier": "0a3f508d-c226-32b8-e044-0003ba298018", "source": "Danmarks Adresseregister"}, "geometry": {"type": "Point", "coordinates": [8.401114, 55.511892]}, "id": "node/342358581"}, {"type": "Feature", "properties": {"@id": "node/342369480", "addr:city": "Fan\u00f8", "addr:country": "DK", "addr:housenumber": "1", "addr:municipality": "Fan\u00f8", "addr:place": "Rindby Strand", "addr:postcode": "6720", "addr:street": "Helmvej", "osak:identifier": "0a3f508d-dc92-32b8-e044-0003ba298018", "source": "Danmarks Adresseregister"}, "geometry": {"type": "Point", "coordinates": [8.378324, 55.420609]}, "id": "node/342369480"}, {"type": "Feature", "properties": {"@id": "node/342321359", "addr:city": "Esbjerg", "addr:country": "DK", "addr:housenumber": "68", "addr:municipality": "Esbjerg", "addr:postcode": "6700", "addr:street": "Baggesens Alle", "osak:identifier": "0a3f508d-68a5-32b8-e044-0003ba298018", "source": "Danmarks Adresseregister"}, "geometry": {"type": "Point", "coordinates": [8.467872, 55.468463]}, "id": "node/342321359"}, {"type": "Feature", "properties": {"@id": "node/3177816044", "addr:city": "Esbjerg", "addr:country": "DK", "addr:housenumber": "55", "addr:municipality": "Esbjerg", "addr:postcode": "6700", "addr:street": "M\u00e5geparken", "osak:identifier": "0ec832e0-849b-4ff5-8b9a-fd2aad7bbc8f", "source": "Danmarks Adresseregister"}, "geometry": {"type": "Point", "coordinates": [8.445155, 55.480644]}, "id": "node/3177816044"}, {"type": "Feature", "properties": {"@id": "node/342324714", "addr:city": "Esbjerg V", "addr:country": "DK", "addr:housenumber": "8", "addr:municipality": "Esbjerg", "addr:postcode": "6710", "addr:street": "Dalstr\u00f8get", "osak:identifier": "0a3f508d-70e6-32b8-e044-0003ba298018", "source": "Danmarks Adresseregister"}, "geometry": {"type": "Point", "coordinates": [8.384738, 55.50918]}, "id": "node/342324714"}, {"type": "Feature", "properties": {"@id": "node/1406506337", "addr:city": "Esbjerg", "addr:country": "DK", "addr:housenumber": "28", "addr:municipality": "Esbjerg", "addr:postcode": "6700", "addr:street": "Strandbygade", "osak:identifier": "0a3f508d-c045-32b8-e044-0003ba298018", "source": "Danmarks Adresseregister"}, "geometry": {"type": "Point", "coordinates": [8.440217, 55.468991]}, "id": "node/1406506337"}, {"type": "Feature", "properties": {"@id": "node/1406469176", "addr:city": "Esbjerg \u00d8", "addr:country": "DK", "addr:housenumber": "19", "addr:municipality": "Esbjerg", "addr:postcode": "6705", "addr:street": "Hejmdals Alle", "osak:identifier": "0a3f508d-8a3d-32b8-e044-0003ba298018", "source": "Danmarks Adresseregister"}, "geometry": {"type": "Point", "coordinates": [8.473854, 55.482903]}, "id": "node/1406469176"}, {"type": "Feature", "properties": {"@id": "node/342321859", "addr:city": "Esbjerg", "addr:country": "DK", "addr:housenumber": "82", "addr:municipality": "Esbjerg", "addr:postcode": "6700", "addr:street": "Baldursgade", "osak:identifier": "0a3f508d-69ad-32b8-e044-0003ba298018", "source": "Danmarks Adresseregister"}, "geometry": {"type": "Point", "coordinates": [8.458864, 55.484804]}, "id": "node/342321859"}, {"type": "Feature", "properties": {"@id": "node/342340844", "addr:city": "Esbjerg", "addr:country": "DK", "addr:housenumber": "88", "addr:municipality": "Esbjerg", "addr:postcode": "6700", "addr:street": "Kronprinsensgade", "osak:identifier": "0a3f508d-9b31-32b8-e044-0003ba298018", "source": "Danmarks Adresseregister"}, "geometry": {"type": "Point", "coordinates": [8.447413, 55.473638]}, "id": "node/342340844"}, {"type": "Feature", "properties": {"@id": "node/1406518647", "addr:city": "Esbjerg", "addr:country": "DK", "addr:housenumber": "37", "addr:municipality": "Esbjerg", "addr:postcode": "6700", "addr:street": "Willemoesgade", "osak:identifier": "0a3f508d-d2e0-32b8-e044-0003ba298018", "source": "Danmarks Adresseregister"}, "geometry": {"type": "Point", "coordinates": [8.438564, 55.469304]}, "id": "node/1406518647"}, {"type": "Feature", "properties": {"@id": "node/342326135", "addr:city": "Esbjerg", "addr:country": "DK", "addr:housenumber": "34", "addr:municipality": "Esbjerg", "addr:postcode": "6700", "addr:street": "Englandsgade", "osak:identifier": "0a3f508d-74fc-32b8-e044-0003ba298018", "source": "Danmarks Adresseregister"}, "geometry": {"type": "Point", "coordinates": [8.455012, 55.46777]}, "id": "node/342326135"}, {"type": "Feature", "properties": {"@id": "node/1406497361", "addr:city": "Esbjerg", "addr:country": "DK", "addr:housenumber": "48A", "addr:municipality": "Esbjerg", "addr:postcode": "6700", "addr:street": "Ribegade", "osak:identifier": "0a3f508d-aebc-32b8-e044-0003ba298018", "source": "Danmarks Adresseregister"}, "geometry": {"type": "Point", "coordinates": [8.466955, 55.466747]}, "id": "node/1406497361"}, {"type": "Feature", "properties": {"@id": "node/342356586", "addr:city": "Esbjerg", "addr:country": "DK", "addr:housenumber": "53", "addr:municipality": "Esbjerg", "addr:postcode": "6700", "addr:street": "Storegade", "osak:identifier": "0a3f508d-beb9-32b8-e044-0003ba298018", "source": "Danmarks Adresseregister"}, "geometry": {"type": "Point", "coordinates": [8.468523, 55.471761]}, "id": "node/342356586"}, {"type": "Feature", "properties": {"@id": "node/342374889", "addr:city": "Fan\u00f8", "addr:country": "DK", "addr:housenumber": "18", "addr:municipality": "Fan\u00f8", "addr:postcode": "6720", "addr:street": "Vesten Bavnen", "osak:identifier": "0a3f508d-e975-32b8-e044-0003ba298018", "source": "Danmarks Adresseregister"}, "geometry": {"type": "Point", "coordinates": [8.386882, 55.441522]}, "id": "node/342374889"}, {"type": "Feature", "properties": {"@id": "node/1406489078", "addr:city": "Esbjerg V", "addr:country": "DK", "addr:housenumber": "19A", "addr:municipality": "Esbjerg", "addr:postcode": "6710", "addr:street": "Nordre Fovrfeldvej", "osak:identifier": "0a3f508d-a831-32b8-e044-0003ba298018", "source": "Danmarks Adresseregister"}, "geometry": {"type": "Point", "coordinates": [8.416058, 55.501187]}, "id": "node/1406489078"}, {"type": "Feature", "properties": {"@id": "node/342368443", "addr:city": "Fan\u00f8", "addr:country": "DK", "addr:housenumber": "72", "addr:municipality": "Fan\u00f8", "addr:place": "Nordby", "addr:postcode": "6720", "addr:street": "Bavnebjerg", "osak:identifier": "0a3f508d-d97a-32b8-e044-0003ba298018", "source": "Danmarks Adresseregister"}, "geometry": {"type": "Point", "coordinates": [8.392648, 55.443936]}, "id": "node/342368443"}, {"type": "Feature", "properties": {"@id": "node/342345974", "addr:city": "Esbjerg", "addr:country": "DK", "addr:housenumber": "4", "addr:municipality": "Esbjerg", "addr:postcode": "6700", "addr:street": "M\u00e5de Engvej", "osak:identifier": "0a3f508d-a61c-32b8-e044-0003ba298018", "source": "Danmarks Adresseregister"}, "geometry": {"type": "Point", "coordinates": [8.487591, 55.457941]}, "id": "node/342345974"}, {"type": "Feature", "properties": {"@id": "node/342375102", "addr:city": "Fan\u00f8", "addr:country": "DK", "addr:housenumber": "16", "addr:municipality": "Fan\u00f8", "addr:place": "Fan\u00f8 Bad", "addr:postcode": "6720", "addr:street": "Vesterklit", "osak:identifier": "0a3f508d-ea03-32b8-e044-0003ba298018", "source": "Danmarks Adresseregister"}, "geometry": {"type": "Point", "coordinates": [8.360296, 55.438619]}, "id": "node/342375102"}, {"type": "Feature", "properties": {"@id": "node/1406438353", "addr:city": "Esbjerg N", "addr:country": "DK", "addr:housenumber": "3", "addr:municipality": "Esbjerg", "addr:place": "Tarp", "addr:postcode": "6715", "addr:street": "Bakkeskr\u00e6nten", "osak:identifier": "0a3f508d-690b-32b8-e044-0003ba298018", "source": "Danmarks Adresseregister"}, "geometry": {"type": "Point", "coordinates": [8.460109, 55.525762]}, "id": "node/1406438353"}, {"type": "Feature", "properties": {"@id": "node/1406513910", "addr:city": "Esbjerg \u00d8", "addr:country": "DK", "addr:housenumber": "25", "addr:municipality": "Esbjerg", "addr:postcode": "6705", "addr:street": "Vestergade", "osak:identifier": "0a3f508d-cfa6-32b8-e044-0003ba298018", "source": "Danmarks Adresseregister"}, "geometry": {"type": "Point", "coordinates": [8.476341, 55.476534]}, "id": "node/1406513910"}, {"type": "Feature", "properties": {"@id": "node/342327663", "addr:city": "Esbjerg N", "addr:country": "DK", "addr:housenumber": "4B", "addr:municipality": "Esbjerg", "addr:place": "Vester Nebel", "addr:postcode": "6715", "addr:street": "Folev\u00e6nget", "osak:identifier": "0a3f508d-78cd-32b8-e044-0003ba298018", "source": "Danmarks Adresseregister"}, "geometry": {"type": "Point", "coordinates": [8.544038, 55.538637]}, "id": "node/342327663"}, {"type": "Feature", "properties": {"@id": "node/1406522576", "addr:city": "Esbjerg \u00d8", "addr:country": "DK", "addr:housenumber": "106", "addr:municipality": "Esbjerg", "addr:place": "Andrup", "addr:postcode": "6705", "addr:street": "N\u00f8rreg\u00e5rdsparken", "osak:identifier": "8f87fccf-a362-4f8b-96ff-86e4ab29a1c2", "source": "Danmarks Adresseregister"}, "geometry": {"type": "Point", "coordinates": [8.528253, 55.502106]}, "id": "node/1406522576"}, {"type": "Feature", "properties": {"@id": "node/1406489057", "addr:city": "Esbjerg V", "addr:country": "DK", "addr:housenumber": "16B", "addr:municipality": "Esbjerg", "addr:postcode": "6710", "addr:street": "Nordre Fovrfeldvej", "osak:identifier": "0a3f508d-a82c-32b8-e044-0003ba298018", "source": "Danmarks Adresseregister"}, "geometry": {"type": "Point", "coordinates": [8.41601, 55.499726]}, "id": "node/1406489057"}, {"type": "Feature", "properties": {"@id": "node/342361809", "addr:city": "Esbjerg", "addr:country": "DK", "addr:housenumber": "28", "addr:municipality": "Esbjerg", "addr:postcode": "6700", "addr:street": "Torvegade", "osak:identifier": "0a3f508d-c9ee-32b8-e044-0003ba298018", "source": "Danmarks Adresseregister"}, "geometry": {"type": "Point", "coordinates": [8.452416, 55.467989]}, "id": "node/342361809"}, {"type": "Feature", "properties": {"@id": "node/342345856", "addr:city": "Esbjerg \u00d8", "addr:country": "DK", "addr:housenumber": "14", "addr:municipality": "Esbjerg", "addr:place": "Andrup", "addr:postcode": "6705", "addr:street": "M\u00f8llekrogen", "osak:identifier": "0a3f508d-a5cd-32b8-e044-0003ba298018", "source": "Danmarks Adresseregister"}, "geometry": {"type": "Point", "coordinates": [8.534681, 55.503039]}, "id": "node/342345856"}, {"type": "Feature", "properties": {"@id": "node/342348967", "addr:city": "Esbjerg V", "addr:country": "DK", "addr:housenumber": "181", "addr:municipality": "Esbjerg", "addr:postcode": "6710", "addr:street": "Parkvej", "osak:identifier": "0a3f508d-ac18-32b8-e044-0003ba298018", "source": "Danmarks Adresseregister"}, "geometry": {"type": "Point", "coordinates": [8.410915, 55.497467]}, "id": "node/342348967"}, {"type": "Feature", "properties": {"@id": "node/760775587", "addr:city": "Esbjerg", "addr:country": "DK", "addr:housenumber": "3", "addr:municipality": "Esbjerg", "addr:postcode": "6700", "addr:street": "Gammelby Strandvej", "osak:identifier": "0ea84e3c-52ed-1cba-e044-0003ba298018", "source": "Danmarks Adresseregister"}, "geometry": {"type": "Point", "coordinates": [8.486285, 55.466788]}, "id": "node/760775587"}, {"type": "Feature", "properties": {"@id": "node/1406462187", "addr:city": "Esbjerg \u00d8", "addr:country": "DK", "addr:housenumber": "56", "addr:municipality": "Esbjerg", "addr:postcode": "6705", "addr:street": "Fuglebakkevej", "osak:identifier": "0a3f508d-7afe-32b8-e044-0003ba298018", "source": "Danmarks Adresseregister"}, "geometry": {"type": "Point", "coordinates": [8.467876, 55.484944]}, "id": "node/1406462187"}, {"type": "Feature", "properties": {"@id": "node/342351384", "addr:city": "Esbjerg V", "addr:country": "DK", "addr:housenumber": "23", "addr:municipality": "Esbjerg", "addr:postcode": "6710", "addr:street": "R\u00f8nnevej", "osak:identifier": "0a3f508d-b0f0-32b8-e044-0003ba298018", "source": "Danmarks Adresseregister"}, "geometry": {"type": "Point", "coordinates": [8.413426, 55.498803]}, "id": "node/342351384"}, {"type": "Feature", "properties": {"@id": "node/342344497", "addr:city": "Esbjerg V", "addr:country": "DK", "addr:housenumber": "40", "addr:municipality": "Esbjerg", "addr:place": "Hjerting", "addr:postcode": "6710", "addr:street": "Matrosv\u00e6nget", "osak:identifier": "0a3f508d-a2c0-32b8-e044-0003ba298018", "source": "Danmarks Adresseregister"}, "geometry": {"type": "Point", "coordinates": [8.378707, 55.525481]}, "id": "node/342344497"}, {"type": "Feature", "properties": {"@id": "node/342343587", "addr:city": "Esbjerg", "addr:country": "DK", "addr:housenumber": "4", "addr:municipality": "Esbjerg", "addr:postcode": "6700", "addr:street": "Magnolievej", "osak:identifier": "0a3f508d-a13b-32b8-e044-0003ba298018", "source": "Danmarks Adresseregister"}, "geometry": {"type": "Point", "coordinates": [8.485603, 55.467826]}, "id": "node/342343587"}, {"type": "Feature", "properties": {"@id": "node/342345911", "addr:city": "Esbjerg N", "addr:country": "DK", "addr:housenumber": "22C", "addr:municipality": "Esbjerg", "addr:postcode": "6715", "addr:street": "M\u00f8lleparkvej", "osak:identifier": "0a3f508d-a5f1-32b8-e044-0003ba298018", "source": "Danmarks Adresseregister"}, "geometry": {"type": "Point", "coordinates": [8.449786, 55.497521]}, "id": "node/342345911"}, {"type": "Feature", "properties": {"@id": "node/342326460", "addr:city": "Esbjerg", "addr:country": "DK", "addr:housenumber": "49", "addr:municipality": "Esbjerg", "addr:postcode": "6700", "addr:street": "Ewalds Alle", "osak:identifier": "0a3f508d-7612-32b8-e044-0003ba298018", "source": "Danmarks Adresseregister"}, "geometry": {"type": "Point", "coordinates": [8.469986, 55.470878]}, "id": "node/342326460"}, {"type": "Feature", "properties": {"@id": "node/1406501124", "addr:city": "Esbjerg", "addr:country": "DK", "addr:housenumber": "33", "addr:municipality": "Esbjerg", "addr:postcode": "6700", "addr:street": "Sj\u00e6llandsgade", "osak:identifier": "0a3f508d-b2c4-32b8-e044-0003ba298018", "source": "Danmarks Adresseregister"}, "geometry": {"type": "Point", "coordinates": [8.441185, 55.473911]}, "id": "node/1406501124"}, {"type": "Feature", "properties": {"@id": "node/342373013", "addr:city": "Fan\u00f8", "addr:country": "DK", "addr:housenumber": "4", "addr:municipality": "Fan\u00f8", "addr:place": "Nordby", "addr:postcode": "6720", "addr:street": "Spurvevej", "osak:identifier": "0a3f508d-e54b-32b8-e044-0003ba298018", "source": "Danmarks Adresseregister"}, "geometry": {"type": "Point", "coordinates": [8.399135, 55.447994]}, "id": "node/342373013"}, {"type": "Feature", "properties": {"@id": "node/342348536", "addr:city": "Esbjerg \u00d8", "addr:country": "DK", "addr:housenumber": "18", "addr:municipality": "Esbjerg", "addr:postcode": "6705", "addr:street": "Oksvangvej", "osak:identifier": "0a3f508d-ab3e-32b8-e044-0003ba298018", "source": "Danmarks Adresseregister"}, "geometry": {"type": "Point", "coordinates": [8.529137, 55.512207]}, "id": "node/342348536"}, {"type": "Feature", "properties": {"@id": "node/1406464355", "addr:city": "Esbjerg", "addr:country": "DK", "addr:housenumber": "26", "addr:municipality": "Esbjerg", "addr:postcode": "6700", "addr:street": "Gormsgade", "osak:identifier": "0a3f508d-8096-32b8-e044-0003ba298018", "source": "Danmarks Adresseregister"}, "geometry": {"type": "Point", "coordinates": [8.452772, 55.473614]}, "id": "node/1406464355"}, {"type": "Feature", "properties": {"@id": "node/342349743", "addr:city": "Esbjerg V", "addr:country": "DK", "addr:housenumber": "8", "addr:municipality": "Esbjerg", "addr:postcode": "6710", "addr:street": "Primulavej", "osak:identifier": "0a3f508d-ad7b-32b8-e044-0003ba298018", "source": "Danmarks Adresseregister"}, "geometry": {"type": "Point", "coordinates": [8.430485, 55.495833]}, "id": "node/342349743"}, {"type": "Feature", "properties": {"@id": "node/342352155", "addr:city": "Esbjerg V", "addr:country": "DK", "addr:housenumber": "8", "addr:municipality": "Esbjerg", "addr:place": "Hjerting", "addr:postcode": "6710", "addr:street": "Skipperv\u00e6nget", "osak:identifier": "0a3f508d-b350-32b8-e044-0003ba298018", "source": "Danmarks Adresseregister"}, "geometry": {"type": "Point", "coordinates": [8.372793, 55.523348]}, "id": "node/342352155"}, {"type": "Feature", "properties": {"@id": "node/342348065", "addr:city": "Esbjerg", "addr:country": "DK", "addr:housenumber": "34", "addr:municipality": "Esbjerg", "addr:postcode": "6700", "addr:street": "N\u00f8rrebrogade", "osak:identifier": "0a3f508d-aa31-32b8-e044-0003ba298018", "source": "Danmarks Adresseregister"}, "geometry": {"type": "Point", "coordinates": [8.461129, 55.473844]}, "id": "node/342348065"}, {"type": "Feature", "properties": {"@id": "node/1406521191", "addr:city": "Esbjerg V", "addr:country": "DK", "addr:housenumber": "134", "addr:municipality": "Esbjerg", "addr:postcode": "6710", "addr:street": "\u00c5moseparken", "osak:identifier": "0a3f508d-d791-32b8-e044-0003ba298018", "source": "Danmarks Adresseregister"}, "geometry": {"type": "Point", "coordinates": [8.393832, 55.508302]}, "id": "node/1406521191"}, {"type": "Feature", "properties": {"@id": "node/1406479603", "addr:city": "Esbjerg", "addr:country": "DK", "addr:housenumber": "16", "addr:municipality": "Esbjerg", "addr:postcode": "6700", "addr:street": "Lenders Alle", "osak:identifier": "0a3f508d-9db6-32b8-e044-0003ba298018", "source": "Danmarks Adresseregister"}, "geometry": {"type": "Point", "coordinates": [8.474169, 55.464523]}, "id": "node/1406479603"}, {"type": "Feature", "properties": {"@id": "node/342364474", "addr:city": "Esbjerg V", "addr:country": "DK", "addr:housenumber": "73", "addr:municipality": "Esbjerg", "addr:postcode": "6710", "addr:street": "Venusv\u00e6nget", "osak:identifier": "0a3f508d-cf59-32b8-e044-0003ba298018", "source": "Danmarks Adresseregister"}, "geometry": {"type": "Point", "coordinates": [8.419345, 55.512992]}, "id": "node/342364474"}, {"type": "Feature", "properties": {"@id": "node/1406464687", "addr:city": "Esbjerg", "addr:country": "DK", "addr:housenumber": "100", "addr:municipality": "Esbjerg", "addr:postcode": "6700", "addr:street": "Gormsgade", "osak:identifier": "0a3f508d-80cc-32b8-e044-0003ba298018", "source": "Danmarks Adresseregister"}, "geometry": {"type": "Point", "coordinates": [8.443434, 55.474652]}, "id": "node/1406464687"}, {"type": "Feature", "properties": {"@id": "node/1406491170", "addr:city": "Esbjerg N", "addr:country": "DK", "addr:housenumber": "21", "addr:municipality": "Esbjerg", "addr:place": "Tarp", "addr:postcode": "6715", "addr:street": "Marken", "osak:identifier": "0a3f508d-a1e5-32b8-e044-0003ba298018", "source": "Danmarks Adresseregister"}, "geometry": {"type": "Point", "coordinates": [8.467395, 55.525455]}, "id": "node/1406491170"}, {"type": "Feature", "properties": {"@id": "node/1406513876", "addr:city": "Esbjerg \u00d8", "addr:country": "DK", "addr:housenumber": "17", "addr:municipality": "Esbjerg", "addr:postcode": "6705", "addr:street": "Vestergade", "osak:identifier": "0a3f508d-cf9f-32b8-e044-0003ba298018", "source": "Danmarks Adresseregister"}, "geometry": {"type": "Point", "coordinates": [8.475255, 55.476506]}, "id": "node/1406513876"}, {"type": "Feature", "properties": {"@id": "node/1406445397", "addr:city": "Esbjerg", "addr:country": "DK", "addr:housenumber": "35", "addr:municipality": "Esbjerg", "addr:postcode": "6700", "addr:street": "Danmarksgade", "osak:identifier": "0a3f508d-712e-32b8-e044-0003ba298018", "source": "Danmarks Adresseregister"}, "geometry": {"type": "Point", "coordinates": [8.453079, 55.467656]}, "id": "node/1406445397"}, {"type": "Feature", "properties": {"@id": "node/342324706", "addr:city": "Esbjerg V", "addr:country": "DK", "addr:housenumber": "2", "addr:municipality": "Esbjerg", "addr:postcode": "6710", "addr:street": "Dalstr\u00f8get", "osak:identifier": "0a3f508d-70e0-32b8-e044-0003ba298018", "source": "Danmarks Adresseregister"}, "geometry": {"type": "Point", "coordinates": [8.385304, 55.50869]}, "id": "node/342324706"}, {"type": "Feature", "properties": {"@id": "node/342368474", "addr:city": "Fan\u00f8", "addr:country": "DK", "addr:housenumber": "3", "addr:municipality": "Fan\u00f8", "addr:place": "Nordby", "addr:postcode": "6720", "addr:street": "Bavnebjergvej", "osak:identifier": "0a3f508d-d98f-32b8-e044-0003ba298018", "source": "Danmarks Adresseregister"}, "geometry": {"type": "Point", "coordinates": [8.398236, 55.441297]}, "id": "node/342368474"}, {"type": "Feature", "properties": {"@id": "node/342332369", "addr:city": "Esbjerg N", "addr:country": "DK", "addr:housenumber": "100C", "addr:municipality": "Esbjerg", "addr:postcode": "6715", "addr:street": "Gr\u00f8nlandsparken", "osak:identifier": "0a3f508d-8333-32b8-e044-0003ba298018", "source": "Danmarks Adresseregister"}, "geometry": {"type": "Point", "coordinates": [8.435877, 55.512573]}, "id": "node/342332369"}, {"type": "Feature", "properties": {"@id": "node/342331350", "addr:city": "Esbjerg V", "addr:country": "DK", "addr:housenumber": "41", "addr:municipality": "Esbjerg", "addr:postcode": "6710", "addr:street": "Granly Alle", "osak:identifier": "0a3f508d-8176-32b8-e044-0003ba298018", "source": "Danmarks Adresseregister"}, "geometry": {"type": "Point", "coordinates": [8.416961, 55.492857]}, "id": "node/342331350"}, {"type": "Feature", "properties": {"@id": "node/342342942", "addr:city": "Esbjerg", "addr:country": "DK", "addr:housenumber": "10E", "addr:municipality": "Esbjerg", "addr:postcode": "6700", "addr:street": "Lykkeg\u00e5rdsvej", "osak:identifier": "0a3f508d-9ff3-32b8-e044-0003ba298018", "source": "Danmarks Adresseregister"}, "geometry": {"type": "Point", "coordinates": [8.500142, 55.467194]}, "id": "node/342342942"}, {"type": "Feature", "properties": {"@id": "node/342375684", "addr:city": "Fan\u00f8", "addr:country": "DK", "addr:housenumber": "27", "addr:municipality": "Fan\u00f8", "addr:place": "Rindby Strand", "addr:postcode": "6720", "addr:street": "\u00d8stre Klitvej", "osak:identifier": "0a3f508d-eb8e-32b8-e044-0003ba298018", "source": "Danmarks Adresseregister"}, "geometry": {"type": "Point", "coordinates": [8.394469, 55.415023]}, "id": "node/342375684"}, {"type": "Feature", "properties": {"@id": "node/1406513546", "addr:city": "Esbjerg V", "addr:country": "DK", "addr:housenumber": "132", "addr:municipality": "Esbjerg", "addr:postcode": "6710", "addr:street": "Tvillingernes Kvarter", "osak:identifier": "0a3f508d-cbc1-32b8-e044-0003ba298018", "source": "Danmarks Adresseregister"}, "geometry": {"type": "Point", "coordinates": [8.422742, 55.517995]}, "id": "node/1406513546"}, {"type": "Feature", "properties": {"@id": "node/1406497685", "addr:city": "Esbjerg", "addr:country": "DK", "addr:housenumber": "112", "addr:municipality": "Esbjerg", "addr:postcode": "6700", "addr:street": "Ribegade", "osak:identifier": "0a3f508d-aee3-32b8-e044-0003ba298018", "source": "Danmarks Adresseregister"}, "geometry": {"type": "Point", "coordinates": [8.477667, 55.466265]}, "id": "node/1406497685"}, {"type": "Feature", "properties": {"@id": "node/4309933888", "addr:city": "Esbjerg", "addr:country": "DK", "addr:housenumber": "7E", "addr:municipality": "Esbjerg", "addr:postcode": "6700", "addr:street": "Haraldsgade", "osak:identifier": "35b565e1-038e-408c-b7af-f0af87961ed2", "source": "Danmarks Adresseregister"}, "geometry": {"type": "Point", "coordinates": [8.458958, 55.474804]}, "id": "node/4309933888"}, {"type": "Feature", "properties": {"@id": "node/3037440300", "addr:city": "Esbjerg", "addr:country": "DK", "addr:housenumber": "20D", "addr:municipality": "Esbjerg", "addr:postcode": "6700", "addr:street": "Gammel Vardevej", "osak:identifier": "0521ad95-1f03-4626-ad65-c80c10c7f410", "source": "Danmarks Adresseregister"}, "geometry": {"type": "Point", "coordinates": [8.436524, 55.475277]}, "id": "node/3037440300"}, {"type": "Feature", "properties": {"@id": "node/342353707", "addr:city": "Esbjerg V", "addr:country": "DK", "addr:housenumber": "36", "addr:municipality": "Esbjerg", "addr:postcode": "6710", "addr:street": "Snerlevej", "osak:identifier": "0a3f508d-b823-32b8-e044-0003ba298018", "source": "Danmarks Adresseregister"}, "geometry": {"type": "Point", "coordinates": [8.426405, 55.496349]}, "id": "node/342353707"}, {"type": "Feature", "properties": {"@id": "node/342336102", "addr:city": "Esbjerg V", "addr:country": "DK", "addr:housenumber": "410", "addr:municipality": "Esbjerg", "addr:postcode": "6710", "addr:street": "Hjertingparken", "osak:identifier": "0a3f508d-8c3a-32b8-e044-0003ba298018", "source": "Danmarks Adresseregister"}, "geometry": {"type": "Point", "coordinates": [8.359108, 55.528699]}, "id": "node/342336102"}, {"type": "Feature", "properties": {"@id": "node/342360368", "addr:city": "Esbjerg \u00d8", "addr:country": "DK", "addr:housenumber": "3", "addr:municipality": "Esbjerg", "addr:postcode": "6705", "addr:street": "S\u00f8ndre Skadsvej", "osak:identifier": "0a3f508d-c5eb-32b8-e044-0003ba298018", "source": "Danmarks Adresseregister"}, "geometry": {"type": "Point", "coordinates": [8.558155, 55.508846]}, "id": "node/342360368"}, {"type": "Feature", "properties": {"@id": "node/342361937", "addr:city": "Esbjerg", "addr:country": "DK", "addr:housenumber": "143A", "addr:municipality": "Esbjerg", "addr:postcode": "6700", "addr:street": "Torvegade", "osak:identifier": "0a3f508d-ca6a-32b8-e044-0003ba298018", "source": "Danmarks Adresseregister"}, "geometry": {"type": "Point", "coordinates": [8.457173, 55.480055]}, "id": "node/342361937"}, {"type": "Feature", "properties": {"@id": "node/342322004", "addr:city": "Esbjerg V", "addr:country": "DK", "addr:housenumber": "7", "addr:municipality": "Esbjerg", "addr:place": "Guldager", "addr:postcode": "6710", "addr:street": "Banev\u00e6nget", "osak:identifier": "0a3f508d-69e4-32b8-e044-0003ba298018", "source": "Danmarks Adresseregister"}, "geometry": {"type": "Point", "coordinates": [8.440819, 55.532059]}, "id": "node/342322004"}, {"type": "Feature", "properties": {"@id": "node/342325704", "addr:city": "Esbjerg \u00d8", "addr:country": "DK", "addr:housenumber": "11", "addr:municipality": "Esbjerg", "addr:postcode": "6705", "addr:street": "Elmegade", "osak:identifier": "0a3f508d-73dd-32b8-e044-0003ba298018", "source": "Danmarks Adresseregister"}, "geometry": {"type": "Point", "coordinates": [8.477742, 55.478176]}, "id": "node/342325704"}, {"type": "Feature", "properties": {"@id": "node/342358601", "addr:city": "Esbjerg V", "addr:country": "DK", "addr:housenumber": "34", "addr:municipality": "Esbjerg", "addr:postcode": "6710", "addr:street": "Sus\u00e5v\u00e6nget", "osak:identifier": "0a3f508d-c230-32b8-e044-0003ba298018", "source": "Danmarks Adresseregister"}, "geometry": {"type": "Point", "coordinates": [8.399959, 55.511893]}, "id": "node/342358601"}, {"type": "Feature", "properties": {"@id": "node/760846651", "addr:city": "Esbjerg N", "addr:country": "DK", "addr:housenumber": "35", "addr:municipality": "Esbjerg", "addr:postcode": "6715", "addr:street": "Storstr\u00f8msvej", "osak:identifier": "0a3f508d-bfcb-32b8-e044-0003ba298018", "source": "Danmarks Adresseregister"}, "geometry": {"type": "Point", "coordinates": [8.46906, 55.502808]}, "id": "node/760846651"}, {"type": "Feature", "properties": {"@id": "node/760778106", "addr:city": "Esbjerg N", "addr:country": "DK", "addr:housenumber": "35", "addr:municipality": "Esbjerg", "addr:place": "Vester Nebel", "addr:postcode": "6715", "addr:street": "Tranbergv\u00e6nget", "osak:identifier": "362e6b23-520a-0f9b-e044-0003ba298018", "source": "Danmarks Adresseregister"}, "geometry": {"type": "Point", "coordinates": [8.537837, 55.539511]}, "id": "node/760778106"}, {"type": "Feature", "properties": {"@id": "node/342329432", "addr:city": "Esbjerg V", "addr:country": "DK", "addr:housenumber": "468", "addr:municipality": "Esbjerg", "addr:postcode": "6710", "addr:street": "Fyrparken", "osak:identifier": "0a3f508d-7c78-32b8-e044-0003ba298018", "source": "Danmarks Adresseregister"}, "geometry": {"type": "Point", "coordinates": [8.397104, 55.502499]}, "id": "node/342329432"}, {"type": "Feature", "properties": {"@id": "node/1406441140", "addr:city": "Esbjerg", "addr:country": "DK", "addr:housenumber": "34", "addr:municipality": "Esbjerg", "addr:postcode": "6700", "addr:street": "Blichers Alle", "osak:identifier": "0a3f508d-6b74-32b8-e044-0003ba298018", "source": "Danmarks Adresseregister"}, "geometry": {"type": "Point", "coordinates": [8.469218, 55.46997]}, "id": "node/1406441140"}, {"type": "Feature", "properties": {"@id": "node/4587454862", "addr:city": "Esbjerg", "addr:country": "DK", "addr:housenumber": "3F", "addr:municipality": "Esbjerg", "addr:postcode": "6700", "addr:street": "Dokvej", "osak:identifier": "1ee14185-0d2c-400f-ae06-acf8c3dcc50c", "source": "Danmarks Adresseregister"}, "geometry": {"type": "Point", "coordinates": [8.440577, 55.461808]}, "id": "node/4587454862"}, {"type": "Feature", "properties": {"@id": "node/1522993710", "addr:city": "Esbjerg \u00d8", "addr:country": "DK", "addr:housenumber": "95B", "addr:municipality": "Esbjerg", "addr:postcode": "6705", "addr:street": "Novrupvej", "osak:identifier": "ad5339fe-1249-4d06-bb6e-5c93eec04231", "source": "Danmarks Adresseregister"}, "geometry": {"type": "Point", "coordinates": [8.529224, 55.474448]}, "id": "node/1522993710"}, {"type": "Feature", "properties": {"@id": "node/342346094", "addr:city": "Esbjerg \u00d8", "addr:country": "DK", "addr:housenumber": "124", "addr:municipality": "Esbjerg", "addr:postcode": "6705", "addr:street": "M\u00e5devej", "osak:identifier": "0a3f508d-a67c-32b8-e044-0003ba298018", "source": "Danmarks Adresseregister"}, "geometry": {"type": "Point", "coordinates": [8.513382, 55.458316]}, "id": "node/342346094"}, {"type": "Feature", "properties": {"@id": "node/3037439297", "addr:city": "Esbjerg \u00d8", "addr:country": "DK", "addr:housenumber": "103", "addr:municipality": "Esbjerg", "addr:postcode": "6705", "addr:street": "Nordskr\u00e6nten", "osak:identifier": "5093feff-c6d0-4b24-8610-f84261624c85", "source": "Danmarks Adresseregister"}, "geometry": {"type": "Point", "coordinates": [8.500779, 55.501256]}, "id": "node/3037439297"}, {"type": "Feature", "properties": {"@id": "node/342374850", "addr:city": "Fan\u00f8", "addr:country": "DK", "addr:housenumber": "5", "addr:municipality": "Fan\u00f8", "addr:place": "Fan\u00f8 Bad", "addr:postcode": "6720", "addr:street": "Ved Skoven", "osak:identifier": "0a3f508d-e95d-32b8-e044-0003ba298018", "source": "Danmarks Adresseregister"}, "geometry": {"type": "Point", "coordinates": [8.380362, 55.432861]}, "id": "node/342374850"}, {"type": "Feature", "properties": {"@id": "node/342330658", "addr:city": "Esbjerg", "addr:country": "DK", "addr:housenumber": "51", "addr:municipality": "Esbjerg", "addr:postcode": "6700", "addr:street": "Gammel Vardevej", "osak:identifier": "0a3f508d-7f68-32b8-e044-0003ba298018", "source": "Danmarks Adresseregister"}, "geometry": {"type": "Point", "coordinates": [8.438633, 55.477955]}, "id": "node/342330658"}, {"type": "Feature", "properties": {"@id": "node/342337154", "addr:city": "Esbjerg", "addr:country": "DK", "addr:housenumber": "52", "addr:municipality": "Esbjerg", "addr:postcode": "6700", "addr:street": "H\u00f8jvangs Alle", "osak:identifier": "0a3f508d-8f58-32b8-e044-0003ba298018", "source": "Danmarks Adresseregister"}, "geometry": {"type": "Point", "coordinates": [8.457234, 55.489343]}, "id": "node/342337154"}, {"type": "Feature", "properties": {"@id": "node/342353668", "addr:city": "Esbjerg V", "addr:country": "DK", "addr:housenumber": "5", "addr:municipality": "Esbjerg", "addr:postcode": "6710", "addr:street": "Snerlevej", "osak:identifier": "0a3f508d-b805-32b8-e044-0003ba298018", "source": "Danmarks Adresseregister"}, "geometry": {"type": "Point", "coordinates": [8.424311, 55.49708]}, "id": "node/342353668"}, {"type": "Feature", "properties": {"@id": "node/342340032", "addr:city": "Esbjerg V", "addr:country": "DK", "addr:housenumber": "21", "addr:municipality": "Esbjerg", "addr:postcode": "6710", "addr:street": "Konge\u00e5v\u00e6nget", "osak:identifier": "0a3f508d-98e5-32b8-e044-0003ba298018", "source": "Danmarks Adresseregister"}, "geometry": {"type": "Point", "coordinates": [8.397868, 55.512151]}, "id": "node/342340032"}, {"type": "Feature", "properties": {"@id": "node/342358391", "addr:city": "Esbjerg V", "addr:country": "DK", "addr:housenumber": "302", "addr:municipality": "Esbjerg", "addr:place": "Hjerting", "addr:postcode": "6710", "addr:street": "Styrmandsv\u00e6nget", "osak:identifier": "0a3f508d-c1db-32b8-e044-0003ba298018", "source": "Danmarks Adresseregister"}, "geometry": {"type": "Point", "coordinates": [8.378922, 55.521985]}, "id": "node/342358391"}, {"type": "Feature", "properties": {"@id": "node/342358990", "addr:city": "Esbjerg V", "addr:country": "DK", "addr:housenumber": "15", "addr:municipality": "Esbjerg", "addr:postcode": "6710", "addr:street": "S\u00e6dding Strandvej", "osak:identifier": "0a3f508d-c2f2-32b8-e044-0003ba298018", "source": "Danmarks Adresseregister"}, "geometry": {"type": "Point", "coordinates": [8.407398, 55.49057]}, "id": "node/342358990"}, {"type": "Feature", "properties": {"@id": "node/1406501329", "addr:city": "Esbjerg", "addr:country": "DK", "addr:housenumber": "21", "addr:municipality": "Esbjerg", "addr:postcode": "6700", "addr:street": "Skovkanten", "osak:identifier": "0a3f508d-b5de-32b8-e044-0003ba298018", "source": "Danmarks Adresseregister"}, "geometry": {"type": "Point", "coordinates": [8.44187, 55.47846]}, "id": "node/1406501329"}, {"type": "Feature", "properties": {"@id": "node/342375074", "addr:city": "Fan\u00f8", "addr:country": "DK", "addr:housenumber": "2", "addr:municipality": "Fan\u00f8", "addr:place": "Rindby Strand", "addr:postcode": "6720", "addr:street": "Vester Kirketoft", "osak:identifier": "0a3f508d-e9f0-32b8-e044-0003ba298018", "source": "Danmarks Adresseregister"}, "geometry": {"type": "Point", "coordinates": [8.391018, 55.421788]}, "id": "node/342375074"}, {"type": "Feature", "properties": {"@id": "node/1406519995", "addr:city": "Esbjerg V", "addr:country": "DK", "addr:housenumber": "37", "addr:municipality": "Esbjerg", "addr:postcode": "6710", "addr:street": "\u00c5mosev\u00e6nget", "osak:identifier": "0a3f508d-d7ef-32b8-e044-0003ba298018", "source": "Danmarks Adresseregister"}, "geometry": {"type": "Point", "coordinates": [8.395383, 55.510325]}, "id": "node/1406519995"}, {"type": "Feature", "properties": {"@id": "node/1406520058", "addr:city": "Esbjerg V", "addr:country": "DK", "addr:housenumber": "53", "addr:municipality": "Esbjerg", "addr:postcode": "6710", "addr:street": "\u00c5mosev\u00e6nget", "osak:identifier": "0a3f508d-d7ff-32b8-e044-0003ba298018", "source": "Danmarks Adresseregister"}, "geometry": {"type": "Point", "coordinates": [8.395827, 55.510534]}, "id": "node/1406520058"}, {"type": "Feature", "properties": {"@id": "node/760775698", "addr:city": "Esbjerg", "addr:country": "DK", "addr:housenumber": "7", "addr:municipality": "Esbjerg", "addr:postcode": "6700", "addr:street": "Engparken", "osak:identifier": "7096f618-67c9-5ed1-e044-00144f3ead67", "source": "Danmarks Adresseregister"}, "geometry": {"type": "Point", "coordinates": [8.430188, 55.481171]}, "id": "node/760775698"}, {"type": "Feature", "properties": {"@id": "node/342321144", "addr:city": "Esbjerg \u00d8", "addr:country": "DK", "addr:housenumber": "59", "addr:municipality": "Esbjerg", "addr:postcode": "6705", "addr:street": "Askelunden", "osak:identifier": "0a3f508d-680f-32b8-e044-0003ba298018", "source": "Danmarks Adresseregister"}, "geometry": {"type": "Point", "coordinates": [8.486935, 55.492128]}, "id": "node/342321144"}, {"type": "Feature", "properties": {"@id": "node/342369819", "addr:city": "Fan\u00f8", "addr:country": "DK", "addr:housenumber": "2", "addr:municipality": "Fan\u00f8", "addr:place": "Nordby", "addr:postcode": "6720", "addr:street": "Kallesbjergvej", "osak:identifier": "0a3f508d-dd93-32b8-e044-0003ba298018", "source": "Danmarks Adresseregister"}, "geometry": {"type": "Point", "coordinates": [8.399099, 55.443928]}, "id": "node/342369819"}, {"type": "Feature", "properties": {"@id": "node/1431537512", "addr:city": "Esbjerg", "addr:country": "DK", "addr:housenumber": "285", "addr:municipality": "Esbjerg", "addr:postcode": "6700", "addr:street": "Strandby Kirkevej", "osak:identifier": "0a3f508d-c024-32b8-e044-0003ba298018", "source": "Danmarks Adresseregister"}, "geometry": {"type": "Point", "coordinates": [8.452568, 55.478513]}, "id": "node/1431537512"}, {"type": "Feature", "properties": {"@id": "node/342346064", "addr:city": "Esbjerg \u00d8", "addr:country": "DK", "addr:housenumber": "87", "addr:municipality": "Esbjerg", "addr:postcode": "6705", "addr:street": "M\u00e5devej", "osak:identifier": "0a3f508d-a667-32b8-e044-0003ba298018", "source": "Danmarks Adresseregister"}, "geometry": {"type": "Point", "coordinates": [8.502868, 55.458033]}, "id": "node/342346064"}, {"type": "Feature", "properties": {"@id": "node/342353896", "addr:city": "Esbjerg V", "addr:country": "DK", "addr:housenumber": "25", "addr:municipality": "Esbjerg", "addr:postcode": "6710", "addr:street": "Solbakken", "osak:identifier": "0a3f508d-b8c9-32b8-e044-0003ba298018", "source": "Danmarks Adresseregister"}, "geometry": {"type": "Point", "coordinates": [8.410221, 55.491829]}, "id": "node/342353896"}, {"type": "Feature", "properties": {"@id": "node/1406508096", "addr:city": "Esbjerg V", "addr:country": "DK", "addr:housenumber": "26", "addr:municipality": "Esbjerg", "addr:postcode": "6710", "addr:street": "S\u00f8stjernen", "osak:identifier": "0a3f508d-c65b-32b8-e044-0003ba298018", "source": "Danmarks Adresseregister"}, "geometry": {"type": "Point", "coordinates": [8.422318, 55.50053]}, "id": "node/1406508096"}, {"type": "Feature", "properties": {"@id": "node/1406483676", "addr:city": "Esbjerg \u00d8", "addr:country": "DK", "addr:housenumber": "91", "addr:municipality": "Esbjerg", "addr:postcode": "6705", "addr:street": "Kastanielunden", "osak:identifier": "0a3f508d-95d1-32b8-e044-0003ba298018", "source": "Danmarks Adresseregister"}, "geometry": {"type": "Point", "coordinates": [8.495073, 55.497787]}, "id": "node/1406483676"}, {"type": "Feature", "properties": {"@id": "node/342326576", "addr:city": "Esbjerg", "addr:country": "DK", "addr:housenumber": "112A", "addr:municipality": "Esbjerg", "addr:postcode": "6700", "addr:street": "Ewalds Alle", "osak:identifier": "0a3f508d-7654-32b8-e044-0003ba298018", "source": "Danmarks Adresseregister"}, "geometry": {"type": "Point", "coordinates": [8.478161, 55.472744]}, "id": "node/342326576"}, {"type": "Feature", "properties": {"@id": "node/6708251687", "addr:city": "Esbjerg", "addr:country": "DK", "addr:housenumber": "73A", "addr:municipality": "Esbjerg", "addr:postcode": "6700", "addr:street": "Gr\u00e5dybet", "osak:identifier": "e60190a1-db8f-497f-a13c-2e736402f689", "source": "Danmarks Adresseregister"}, "geometry": {"type": "Point", "coordinates": [8.435451, 55.479041]}, "id": "node/6708251687"}, {"type": "Feature", "properties": {"@id": "node/342365517", "addr:city": "Esbjerg V", "addr:country": "DK", "addr:housenumber": "156", "addr:municipality": "Esbjerg", "addr:postcode": "6710", "addr:street": "V\u00e6dderens Kvarter", "osak:identifier": "0a3f508d-d25a-32b8-e044-0003ba298018", "source": "Danmarks Adresseregister"}, "geometry": {"type": "Point", "coordinates": [8.421767, 55.517763]}, "id": "node/342365517"}, {"type": "Feature", "properties": {"@id": "node/4135845214", "addr:city": "Fan\u00f8", "addr:country": "DK", "addr:housenumber": "2B", "addr:municipality": "Fan\u00f8", "addr:place": "Rindby Strand", "addr:postcode": "6720", "addr:street": "Slunden", "osak:identifier": "1037e225-56f2-45f2-a989-73bdbbf407de", "source": "Danmarks Adresseregister"}, "geometry": {"type": "Point", "coordinates": [8.380482, 55.421648]}, "id": "node/4135845214"}, {"type": "Feature", "properties": {"@id": "node/1406470558", "addr:city": "Esbjerg", "addr:country": "DK", "addr:housenumber": "34", "addr:municipality": "Esbjerg", "addr:postcode": "6700", "addr:street": "Haraldsgade", "osak:identifier": "0a3f508d-8799-32b8-e044-0003ba298018", "source": "Danmarks Adresseregister"}, "geometry": {"type": "Point", "coordinates": [8.455206, 55.475001]}, "id": "node/1406470558"}, {"type": "Feature", "properties": {"@id": "node/342341139", "addr:city": "Esbjerg V", "addr:country": "DK", "addr:housenumber": "69", "addr:municipality": "Esbjerg", "addr:postcode": "6710", "addr:street": "Kystparken", "osak:identifier": "0a3f508d-9c33-32b8-e044-0003ba298018", "source": "Danmarks Adresseregister"}, "geometry": {"type": "Point", "coordinates": [8.38927, 55.503203]}, "id": "node/342341139"}, {"type": "Feature", "properties": {"@id": "node/342375323", "addr:city": "Fan\u00f8", "addr:country": "DK", "addr:housenumber": "40", "addr:municipality": "Fan\u00f8", "addr:postcode": "6720", "addr:street": "Vestertoft", "osak:identifier": "0a3f508d-ea8e-32b8-e044-0003ba298018", "source": "Danmarks Adresseregister"}, "geometry": {"type": "Point", "coordinates": [8.389043, 55.431169]}, "id": "node/342375323"}, {"type": "Feature", "properties": {"@id": "node/958119686", "addr:city": "Esbjerg", "addr:country": "DK", "addr:housenumber": "6", "addr:municipality": "Esbjerg", "addr:postcode": "6700", "addr:street": "H.E. Bluhmes Vej", "osak:identifier": "0a3f508d-86f0-32b8-e044-0003ba298018", "source": "Danmarks Adresseregister"}, "geometry": {"type": "Point", "coordinates": [8.429644, 55.473434]}, "id": "node/958119686"}, {"type": "Feature", "properties": {"@id": "node/1406464746", "addr:city": "Esbjerg", "addr:country": "DK", "addr:housenumber": "109", "addr:municipality": "Esbjerg", "addr:postcode": "6700", "addr:street": "Gormsgade", "osak:identifier": "0a3f508d-80d8-32b8-e044-0003ba298018", "source": "Danmarks Adresseregister"}, "geometry": {"type": "Point", "coordinates": [8.438461, 55.475411]}, "id": "node/1406464746"}, {"type": "Feature", "properties": {"@id": "node/342361871", "addr:city": "Esbjerg", "addr:country": "DK", "addr:housenumber": "90", "addr:municipality": "Esbjerg", "addr:postcode": "6700", "addr:street": "Torvegade", "osak:identifier": "0a3f508d-ca2a-32b8-e044-0003ba298018", "source": "Danmarks Adresseregister"}, "geometry": {"type": "Point", "coordinates": [8.454343, 55.473855]}, "id": "node/342361871"}, {"type": "Feature", "properties": {"@id": "node/1406443541", "addr:city": "Esbjerg", "addr:country": "DK", "addr:housenumber": "38B", "addr:municipality": "Esbjerg", "addr:postcode": "6700", "addr:street": "Carit Etlars Alle", "osak:identifier": "0a3f508d-6f7f-32b8-e044-0003ba298018", "source": "Danmarks Adresseregister"}, "geometry": {"type": "Point", "coordinates": [8.47381, 55.471132]}, "id": "node/1406443541"}, {"type": "Feature", "properties": {"@id": "node/342328400", "addr:city": "Esbjerg V", "addr:country": "DK", "addr:housenumber": "12", "addr:municipality": "Esbjerg", "addr:postcode": "6710", "addr:street": "Fr\u00f8k\u00e6rparken", "osak:identifier": "0a3f508d-7aa0-32b8-e044-0003ba298018", "source": "Danmarks Adresseregister"}, "geometry": {"type": "Point", "coordinates": [8.401369, 55.533967]}, "id": "node/342328400"}, {"type": "Feature", "properties": {"@id": "node/342323138", "addr:city": "Esbjerg V", "addr:country": "DK", "addr:housenumber": "42", "addr:municipality": "Esbjerg", "addr:postcode": "6710", "addr:street": "Briggen", "osak:identifier": "0a3f508d-6cb1-32b8-e044-0003ba298018", "source": "Danmarks Adresseregister"}, "geometry": {"type": "Point", "coordinates": [8.358122, 55.530089]}, "id": "node/342323138"}, {"type": "Feature", "properties": {"@id": "node/342369440", "addr:city": "Fan\u00f8", "addr:country": "DK", "addr:housenumber": "29", "addr:municipality": "Fan\u00f8", "addr:postcode": "6720", "addr:street": "Hedemarken", "osak:identifier": "0a3f508d-dc6e-32b8-e044-0003ba298018", "source": "Danmarks Adresseregister"}, "geometry": {"type": "Point", "coordinates": [8.403522, 55.414741]}, "id": "node/342369440"}, {"type": "Feature", "properties": {"@id": "node/5582721321", "addr:city": "Esbjerg V", "addr:country": "DK", "addr:housenumber": "44", "addr:municipality": "Esbjerg", "addr:postcode": "6710", "addr:street": "Erisv\u00e6nget", "osak:identifier": "164f52aa-e7d3-4b07-bb35-18e0b5f0c35a", "source": "Danmarks Adresseregister"}, "geometry": {"type": "Point", "coordinates": [8.408823, 55.521638]}, "id": "node/5582721321"}, {"type": "Feature", "properties": {"@id": "node/342343013", "addr:city": "Esbjerg", "addr:country": "DK", "addr:housenumber": "24", "addr:municipality": "Esbjerg", "addr:postcode": "6700", "addr:street": "Lykkeg\u00e5rdsvej", "osak:identifier": "0a3f508d-a01d-32b8-e044-0003ba298018", "source": "Danmarks Adresseregister"}, "geometry": {"type": "Point", "coordinates": [8.500732, 55.470073]}, "id": "node/342343013"}, {"type": "Feature", "properties": {"@id": "node/342366980", "addr:city": "Esbjerg V", "addr:country": "DK", "addr:housenumber": "50", "addr:municipality": "Esbjerg", "addr:postcode": "6710", "addr:street": "\u00c5dalsparken", "osak:identifier": "0a3f508d-d634-32b8-e044-0003ba298018", "source": "Danmarks Adresseregister"}, "geometry": {"type": "Point", "coordinates": [8.402604, 55.508381]}, "id": "node/342366980"}, {"type": "Feature", "properties": {"@id": "node/342359402", "addr:city": "Esbjerg N", "addr:country": "DK", "addr:housenumber": "33", "addr:municipality": "Esbjerg", "addr:postcode": "6715", "addr:street": "S\u00e6lhundevej", "osak:identifier": "0a3f508d-c413-32b8-e044-0003ba298018", "source": "Danmarks Adresseregister"}, "geometry": {"type": "Point", "coordinates": [8.441959, 55.515664]}, "id": "node/342359402"}, {"type": "Feature", "properties": {"@id": "node/3037438517", "addr:city": "Fan\u00f8", "addr:country": "DK", "addr:housenumber": "15", "addr:municipality": "Fan\u00f8", "addr:place": "Nordby", "addr:postcode": "6720", "addr:street": "\u00d8gdal", "osak:identifier": "bf873175-eab5-417a-b520-2ae95b30ddcf", "source": "Danmarks Adresseregister"}, "geometry": {"type": "Point", "coordinates": [8.385397, 55.444555]}, "id": "node/3037438517"}, {"type": "Feature", "properties": {"@id": "node/342336478", "addr:city": "Esbjerg N", "addr:country": "DK", "addr:housenumber": "10", "addr:municipality": "Esbjerg", "addr:postcode": "6715", "addr:street": "Hospitalsvej", "osak:identifier": "0a3f508d-8d07-32b8-e044-0003ba298018", "source": "Danmarks Adresseregister"}, "geometry": {"type": "Point", "coordinates": [8.445797, 55.494266]}, "id": "node/342336478"}, {"type": "Feature", "properties": {"@id": "node/342368739", "addr:city": "Fan\u00f8", "addr:country": "DK", "addr:housenumber": "22", "addr:municipality": "Fan\u00f8", "addr:place": "Rindby Strand", "addr:postcode": "6720", "addr:street": "Engdraget", "osak:identifier": "0a3f508d-da88-32b8-e044-0003ba298018", "source": "Danmarks Adresseregister"}, "geometry": {"type": "Point", "coordinates": [8.391059, 55.415019]}, "id": "node/342368739"}, {"type": "Feature", "properties": {"@id": "node/6052857809", "addr:city": "Esbjerg \u00d8", "addr:country": "DK", "addr:housenumber": "3N", "addr:municipality": "Esbjerg", "addr:postcode": "6705", "addr:street": "Kornvangen", "osak:identifier": "cfe692e6-a2da-4f29-806e-299cf57f6b90", "source": "Danmarks Adresseregister"}, "geometry": {"type": "Point", "coordinates": [8.49429, 55.475217]}, "id": "node/6052857809"}, {"type": "Feature", "properties": {"@id": "node/342326494", "addr:city": "Esbjerg", "addr:country": "DK", "addr:housenumber": "68", "addr:municipality": "Esbjerg", "addr:postcode": "6700", "addr:street": "Ewalds Alle", "osak:identifier": "0a3f508d-762a-32b8-e044-0003ba298018", "source": "Danmarks Adresseregister"}, "geometry": {"type": "Point", "coordinates": [8.471795, 55.471744]}, "id": "node/342326494"}, {"type": "Feature", "properties": {"@id": "node/1406444056", "addr:city": "Esbjerg \u00d8", "addr:country": "DK", "addr:housenumber": "25", "addr:municipality": "Esbjerg", "addr:postcode": "6705", "addr:street": "Cederlunden", "osak:identifier": "0a3f508d-6ff4-32b8-e044-0003ba298018", "source": "Danmarks Adresseregister"}, "geometry": {"type": "Point", "coordinates": [8.491582, 55.49211]}, "id": "node/1406444056"}, {"type": "Feature", "properties": {"@id": "node/342356432", "addr:city": "Esbjerg N", "addr:country": "DK", "addr:housenumber": "25", "addr:municipality": "Esbjerg", "addr:postcode": "6715", "addr:street": "Stig\u00e5rdsvej", "osak:identifier": "0a3f508d-be66-32b8-e044-0003ba298018", "source": "Danmarks Adresseregister"}, "geometry": {"type": "Point", "coordinates": [8.452598, 55.504367]}, "id": "node/342356432"}, {"type": "Feature", "properties": {"@id": "node/342340768", "addr:city": "Esbjerg", "addr:country": "DK", "addr:housenumber": "14", "addr:municipality": "Esbjerg", "addr:postcode": "6700", "addr:street": "Kronprinsensgade", "osak:identifier": "0a3f508d-9aef-32b8-e044-0003ba298018", "source": "Danmarks Adresseregister"}, "geometry": {"type": "Point", "coordinates": [8.445376, 55.466366]}, "id": "node/342340768"}, {"type": "Feature", "properties": {"@id": "node/342333984", "addr:city": "Esbjerg V", "addr:country": "DK", "addr:housenumber": "61", "addr:municipality": "Esbjerg", "addr:place": "Guldager", "addr:postcode": "6710", "addr:street": "Guldagervej", "osak:identifier": "0a3f508d-8605-32b8-e044-0003ba298018", "source": "Danmarks Adresseregister"}, "geometry": {"type": "Point", "coordinates": [8.375983, 55.529727]}, "id": "node/342333984"}, {"type": "Feature", "properties": {"@id": "node/342344765", "addr:city": "Esbjerg V", "addr:country": "DK", "addr:housenumber": "160", "addr:municipality": "Esbjerg", "addr:place": "Hjerting", "addr:postcode": "6710", "addr:street": "Matrosv\u00e6nget", "osak:identifier": "0a3f508d-a32f-32b8-e044-0003ba298018", "source": "Danmarks Adresseregister"}, "geometry": {"type": "Point", "coordinates": [8.378317, 55.526478]}, "id": "node/342344765"}, {"type": "Feature", "properties": {"@id": "node/1406500370", "addr:city": "Esbjerg", "addr:country": "DK", "addr:housenumber": "29", "addr:municipality": "Esbjerg", "addr:postcode": "6700", "addr:street": "Skjoldsgade", "osak:identifier": "0a3f508d-b3e0-32b8-e044-0003ba298018", "source": "Danmarks Adresseregister"}, "geometry": {"type": "Point", "coordinates": [8.452078, 55.471557]}, "id": "node/1406500370"}, {"type": "Feature", "properties": {"@id": "node/342363993", "addr:city": "Esbjerg N", "addr:country": "DK", "addr:housenumber": "24", "addr:municipality": "Esbjerg", "addr:postcode": "6715", "addr:street": "Umanakvej", "osak:identifier": "0a3f508d-cdb8-32b8-e044-0003ba298018", "source": "Danmarks Adresseregister"}, "geometry": {"type": "Point", "coordinates": [8.445278, 55.517088]}, "id": "node/342363993"}, {"type": "Feature", "properties": {"@id": "node/342351374", "addr:city": "Esbjerg V", "addr:country": "DK", "addr:housenumber": "11", "addr:municipality": "Esbjerg", "addr:postcode": "6710", "addr:street": "R\u00f8nnevej", "osak:identifier": "0a3f508d-b0e6-32b8-e044-0003ba298018", "source": "Danmarks Adresseregister"}, "geometry": {"type": "Point", "coordinates": [8.410027, 55.498492]}, "id": "node/342351374"}, {"type": "Feature", "properties": {"@id": "node/342338737", "addr:city": "Esbjerg", "addr:country": "DK", "addr:housenumber": "3", "addr:municipality": "Esbjerg", "addr:postcode": "6700", "addr:street": "Jyllandsgade", "osak:identifier": "0a3f508d-9454-32b8-e044-0003ba298018", "source": "Danmarks Adresseregister"}, "geometry": {"type": "Point", "coordinates": [8.447303, 55.465235]}, "id": "node/342338737"}, {"type": "Feature", "properties": {"@id": "node/342330046", "addr:city": "Esbjerg", "addr:country": "DK", "addr:housenumber": "42", "addr:municipality": "Esbjerg", "addr:postcode": "6700", "addr:street": "Gammelby Strandvej", "osak:identifier": "0a3f508d-7d9f-32b8-e044-0003ba298018", "source": "Danmarks Adresseregister"}, "geometry": {"type": "Point", "coordinates": [8.482311, 55.471801]}, "id": "node/342330046"}, {"type": "Feature", "properties": {"@id": "node/342322035", "addr:city": "Esbjerg V", "addr:country": "DK", "addr:housenumber": "12", "addr:municipality": "Esbjerg", "addr:place": "Guldager", "addr:postcode": "6710", "addr:street": "Banev\u00e6nget", "osak:identifier": "0a3f508d-69e9-32b8-e044-0003ba298018", "source": "Danmarks Adresseregister"}, "geometry": {"type": "Point", "coordinates": [8.441381, 55.531063]}, "id": "node/342322035"}, {"type": "Feature", "properties": {"@id": "node/976371442", "addr:city": "Esbjerg", "addr:country": "DK", "addr:housenumber": "30", "addr:municipality": "Esbjerg", "addr:postcode": "6700", "addr:street": "Auktionsgade", "osak:identifier": "0a3f508d-6853-32b8-e044-0003ba298018", "source": "Danmarks Adresseregister"}, "geometry": {"type": "Point", "coordinates": [8.423469, 55.471027]}, "id": "node/976371442"}, {"type": "Feature", "properties": {"@id": "node/342369685", "addr:city": "Fan\u00f8", "addr:country": "DK", "addr:housenumber": "101", "addr:municipality": "Fan\u00f8", "addr:place": "Nordby", "addr:postcode": "6720", "addr:street": "Hovedgaden", "osak:identifier": "0a3f508d-dd3b-32b8-e044-0003ba298018", "source": "Danmarks Adresseregister"}, "geometry": {"type": "Point", "coordinates": [8.398933, 55.441395]}, "id": "node/342369685"}, {"type": "Feature", "properties": {"@id": "node/342320982", "addr:city": "Esbjerg \u00d8", "addr:country": "DK", "addr:housenumber": "5", "addr:municipality": "Esbjerg", "addr:postcode": "6705", "addr:street": "Anemonevej", "osak:identifier": "0a3f508d-67bf-32b8-e044-0003ba298018", "source": "Danmarks Adresseregister"}, "geometry": {"type": "Point", "coordinates": [8.480812, 55.481809]}, "id": "node/342320982"}, {"type": "Feature", "properties": {"@id": "node/342361769", "addr:city": "Esbjerg V", "addr:country": "DK", "addr:housenumber": "7", "addr:municipality": "Esbjerg", "addr:postcode": "6710", "addr:street": "Topsand", "osak:identifier": "0a3f508d-c9c4-32b8-e044-0003ba298018", "source": "Danmarks Adresseregister"}, "geometry": {"type": "Point", "coordinates": [8.398635, 55.499369]}, "id": "node/342361769"}, {"type": "Feature", "properties": {"@id": "node/1305480330", "addr:city": "Esbjerg V", "addr:country": "DK", "addr:housenumber": "59", "addr:municipality": "Esbjerg", "addr:postcode": "6710", "addr:street": "V\u00e6gtens Kvarter", "osak:identifier": "9bcc8e09-96be-4151-a117-c150bcc8da6f", "source": "Danmarks Adresseregister"}, "geometry": {"type": "Point", "coordinates": [8.420489, 55.528621]}, "id": "node/1305480330"}, {"type": "Feature", "properties": {"@id": "node/342351504", "addr:city": "Esbjerg", "addr:country": "DK", "addr:housenumber": "81", "addr:municipality": "Esbjerg", "addr:postcode": "6700", "addr:street": "R\u00f8rkj\u00e6rsgade", "osak:identifier": "0a3f508d-b149-32b8-e044-0003ba298018", "source": "Danmarks Adresseregister"}, "geometry": {"type": "Point", "coordinates": [8.46363, 55.469168]}, "id": "node/342351504"}, {"type": "Feature", "properties": {"@id": "node/1406483187", "addr:city": "Esbjerg \u00d8", "addr:country": "DK", "addr:housenumber": "6", "addr:municipality": "Esbjerg", "addr:postcode": "6705", "addr:street": "Krokusvej", "osak:identifier": "0a3f508d-9ad8-32b8-e044-0003ba298018", "source": "Danmarks Adresseregister"}, "geometry": {"type": "Point", "coordinates": [8.481327, 55.484151]}, "id": "node/1406483187"}, {"type": "Feature", "properties": {"@id": "node/1406497015", "addr:city": "Esbjerg N", "addr:country": "DK", "addr:housenumber": "22", "addr:municipality": "Esbjerg", "addr:postcode": "6715", "addr:street": "Poppelvangen", "osak:identifier": "0a3f508d-ad57-32b8-e044-0003ba298018", "source": "Danmarks Adresseregister"}, "geometry": {"type": "Point", "coordinates": [8.431485, 55.505092]}, "id": "node/1406497015"}, {"type": "Feature", "properties": {"@id": "node/1501337955", "addr:city": "Esbjerg \u00d8", "addr:country": "DK", "addr:housenumber": "65", "addr:municipality": "Esbjerg", "addr:place": "Andrup", "addr:postcode": "6705", "addr:street": "N\u00f8rreg\u00e5rdsparken", "osak:identifier": "d3668bc9-37fa-412e-9e19-45ee57684a94", "source": "Danmarks Adresseregister"}, "geometry": {"type": "Point", "coordinates": [8.531602, 55.501473]}, "id": "node/1501337955"}, {"type": "Feature", "properties": {"@id": "node/760846759", "addr:city": "Esbjerg V", "addr:country": "DK", "addr:housenumber": "18", "addr:municipality": "Esbjerg", "addr:postcode": "6710", "addr:street": "Skorpionens Kvarter", "osak:identifier": "16bed59f-a082-1efc-e044-0003ba298018", "source": "Danmarks Adresseregister"}, "geometry": {"type": "Point", "coordinates": [8.417447, 55.526608]}, "id": "node/760846759"}, {"type": "Feature", "properties": {"@id": "node/342328101", "addr:city": "Esbjerg N", "addr:country": "DK", "addr:housenumber": "49", "addr:municipality": "Esbjerg", "addr:postcode": "6715", "addr:street": "Fridtjof Nansens Vej", "osak:identifier": "0a3f508d-79e2-32b8-e044-0003ba298018", "source": "Danmarks Adresseregister"}, "geometry": {"type": "Point", "coordinates": [8.436297, 55.508297]}, "id": "node/342328101"}, {"type": "Feature", "properties": {"@id": "node/342363001", "addr:city": "Esbjerg V", "addr:country": "DK", "addr:housenumber": "4", "addr:municipality": "Esbjerg", "addr:postcode": "6710", "addr:street": "Tyrens Kvarter", "osak:identifier": "0a3f508d-cbfd-32b8-e044-0003ba298018", "source": "Danmarks Adresseregister"}, "geometry": {"type": "Point", "coordinates": [8.422986, 55.515991]}, "id": "node/342363001"}, {"type": "Feature", "properties": {"@id": "node/342351110", "addr:city": "Esbjerg", "addr:country": "DK", "addr:housenumber": "97", "addr:municipality": "Esbjerg", "addr:postcode": "6700", "addr:street": "Rosenv\u00e6ngets Alle", "osak:identifier": "0a3f508d-b067-32b8-e044-0003ba298018", "source": "Danmarks Adresseregister"}, "geometry": {"type": "Point", "coordinates": [8.473467, 55.473741]}, "id": "node/342351110"}, {"type": "Feature", "properties": {"@id": "node/342340215", "addr:city": "Esbjerg V", "addr:country": "DK", "addr:housenumber": "3", "addr:municipality": "Esbjerg", "addr:postcode": "6710", "addr:street": "Krebsens Kvarter", "osak:identifier": "0a3f508d-9977-32b8-e044-0003ba298018", "source": "Danmarks Adresseregister"}, "geometry": {"type": "Point", "coordinates": [8.427042, 55.521718]}, "id": "node/342340215"}, {"type": "Feature", "properties": {"@id": "node/5660024625", "addr:city": "Esbjerg N", "addr:country": "DK", "addr:housenumber": "41", "addr:municipality": "Esbjerg", "addr:postcode": "6715", "addr:street": "Roald Amundsens Vej", "osak:identifier": "0a3f508d-af98-32b8-e044-0003ba298018", "source": "Danmarks Adresseregister"}, "geometry": {"type": "Point", "coordinates": [8.439032, 55.509934]}, "id": "node/5660024625"}, {"type": "Feature", "properties": {"@id": "node/1406509390", "addr:city": "Esbjerg N", "addr:country": "DK", "addr:housenumber": "248", "addr:municipality": "Esbjerg", "addr:postcode": "6715", "addr:street": "Thulevej", "osak:identifier": "0a3f508d-c86b-32b8-e044-0003ba298018", "source": "Danmarks Adresseregister"}, "geometry": {"type": "Point", "coordinates": [8.435818, 55.516277]}, "id": "node/1406509390"}, {"type": "Feature", "properties": {"@id": "node/342364085", "addr:city": "Esbjerg N", "addr:country": "DK", "addr:housenumber": "82", "addr:municipality": "Esbjerg", "addr:postcode": "6715", "addr:street": "Umanakvej", "osak:identifier": "0a3f508d-cdf2-32b8-e044-0003ba298018", "source": "Danmarks Adresseregister"}, "geometry": {"type": "Point", "coordinates": [8.444635, 55.518524]}, "id": "node/342364085"}, {"type": "Feature", "properties": {"@id": "node/1406509433", "addr:city": "Esbjerg N", "addr:country": "DK", "addr:housenumber": "270", "addr:municipality": "Esbjerg", "addr:postcode": "6715", "addr:street": "Thulevej", "osak:identifier": "0a3f508d-c876-32b8-e044-0003ba298018", "source": "Danmarks Adresseregister"}, "geometry": {"type": "Point", "coordinates": [8.43672, 55.516132]}, "id": "node/1406509433"}, {"type": "Feature", "properties": {"@id": "node/342338745", "addr:city": "Esbjerg", "addr:country": "DK", "addr:housenumber": "16B", "addr:municipality": "Esbjerg", "addr:postcode": "6700", "addr:street": "Jyllandsgade", "osak:identifier": "0a3f508d-9460-32b8-e044-0003ba298018", "source": "Danmarks Adresseregister"}, "geometry": {"type": "Point", "coordinates": [8.446868, 55.466154]}, "id": "node/342338745"}, {"type": "Feature", "properties": {"@id": "node/342339392", "addr:city": "Esbjerg", "addr:country": "DK", "addr:housenumber": "90", "addr:municipality": "Esbjerg", "addr:postcode": "6700", "addr:street": "Kirkegade", "osak:identifier": "0a3f508d-9686-32b8-e044-0003ba298018", "source": "Danmarks Adresseregister"}, "geometry": {"type": "Point", "coordinates": [8.451264, 55.473634]}, "id": "node/342339392"}, {"type": "Feature", "properties": {"@id": "node/342339555", "addr:city": "Esbjerg \u00d8", "addr:country": "DK", "addr:housenumber": "8", "addr:municipality": "Esbjerg", "addr:postcode": "6705", "addr:street": "Kjersingvej", "osak:identifier": "0a3f508d-9709-32b8-e044-0003ba298018", "source": "Danmarks Adresseregister"}, "geometry": {"type": "Point", "coordinates": [8.479981, 55.480956]}, "id": "node/342339555"}, {"type": "Feature", "properties": {"@id": "node/342327268", "addr:city": "Esbjerg", "addr:country": "DK", "addr:housenumber": "23", "addr:municipality": "Esbjerg", "addr:postcode": "6700", "addr:street": "Finsensgade", "osak:identifier": "0a3f508d-77c7-32b8-e044-0003ba298018", "source": "Danmarks Adresseregister"}, "geometry": {"type": "Point", "coordinates": [8.456233, 55.471846]}, "id": "node/342327268"}, {"type": "Feature", "properties": {"@id": "node/760846666", "addr:city": "Esbjerg", "addr:country": "DK", "addr:housenumber": "14", "addr:municipality": "Esbjerg", "addr:postcode": "6700", "addr:street": "Amerikavej", "osak:identifier": "0a3f508d-677e-32b8-e044-0003ba298018", "source": "Danmarks Adresseregister"}, "geometry": {"type": "Point", "coordinates": [8.460278, 55.456804]}, "id": "node/760846666"}, {"type": "Feature", "properties": {"@id": "node/342323102", "addr:city": "Esbjerg V", "addr:country": "DK", "addr:housenumber": "8", "addr:municipality": "Esbjerg", "addr:postcode": "6710", "addr:street": "Briggen", "osak:identifier": "0a3f508d-6c8f-32b8-e044-0003ba298018", "source": "Danmarks Adresseregister"}, "geometry": {"type": "Point", "coordinates": [8.358162, 55.530554]}, "id": "node/342323102"}, {"type": "Feature", "properties": {"@id": "node/342323553", "addr:city": "Esbjerg N", "addr:country": "DK", "addr:housenumber": "170", "addr:municipality": "Esbjerg", "addr:place": "Bryndum", "addr:postcode": "6715", "addr:street": "Bryndumvej", "osak:identifier": "0a3f508d-6dc3-32b8-e044-0003ba298018", "source": "Danmarks Adresseregister"}, "geometry": {"type": "Point", "coordinates": [8.484708, 55.538221]}, "id": "node/342323553"}, {"type": "Feature", "properties": {"@id": "node/342348403", "addr:city": "Esbjerg V", "addr:country": "DK", "addr:housenumber": "12", "addr:municipality": "Esbjerg", "addr:place": "Guldager", "addr:postcode": "6710", "addr:street": "N\u00f8rrev\u00e6nget", "osak:identifier": "0a3f508d-aaf0-32b8-e044-0003ba298018", "source": "Danmarks Adresseregister"}, "geometry": {"type": "Point", "coordinates": [8.403713, 55.533496]}, "id": "node/342348403"}, {"type": "Feature", "properties": {"@id": "node/342368755", "addr:city": "Fan\u00f8", "addr:country": "DK", "addr:housenumber": "10", "addr:municipality": "Fan\u00f8", "addr:place": "Nordby", "addr:postcode": "6720", "addr:street": "Engg\u00e5rdsvej", "osak:identifier": "0a3f508d-da9b-32b8-e044-0003ba298018", "source": "Danmarks Adresseregister"}, "geometry": {"type": "Point", "coordinates": [8.397952, 55.438569]}, "id": "node/342368755"}, {"type": "Feature", "properties": {"@id": "node/342341288", "addr:city": "Esbjerg V", "addr:country": "DK", "addr:housenumber": "9", "addr:municipality": "Esbjerg", "addr:place": "Guldager", "addr:postcode": "6710", "addr:street": "K\u00e6rv\u00e6nget", "osak:identifier": "0a3f508d-9cb2-32b8-e044-0003ba298018", "source": "Danmarks Adresseregister"}, "geometry": {"type": "Point", "coordinates": [8.4015, 55.528422]}, "id": "node/342341288"}, {"type": "Feature", "properties": {"@id": "node/342326986", "addr:city": "Esbjerg V", "addr:country": "DK", "addr:housenumber": "22", "addr:municipality": "Esbjerg", "addr:place": "Hjerting", "addr:postcode": "6710", "addr:street": "Fasanv\u00e6nget", "osak:identifier": "0a3f508d-771d-32b8-e044-0003ba298018", "source": "Danmarks Adresseregister"}, "geometry": {"type": "Point", "coordinates": [8.353075, 55.52683]}, "id": "node/342326986"}, {"type": "Feature", "properties": {"@id": "node/342325678", "addr:city": "Esbjerg N", "addr:country": "DK", "addr:housenumber": "13", "addr:municipality": "Esbjerg", "addr:postcode": "6715", "addr:street": "Egevangen", "osak:identifier": "0a3f508d-73c3-32b8-e044-0003ba298018", "source": "Danmarks Adresseregister"}, "geometry": {"type": "Point", "coordinates": [8.436304, 55.504377]}, "id": "node/342325678"}, {"type": "Feature", "properties": {"@id": "node/342369621", "addr:city": "Fan\u00f8", "addr:country": "DK", "addr:housenumber": "61", "addr:municipality": "Fan\u00f8", "addr:place": "Nordby", "addr:postcode": "6720", "addr:street": "Hovedgaden", "osak:identifier": "0a3f508d-dd09-32b8-e044-0003ba298018", "source": "Danmarks Adresseregister"}, "geometry": {"type": "Point", "coordinates": [8.403854, 55.445297]}, "id": "node/342369621"}, {"type": "Feature", "properties": {"@id": "node/342343887", "addr:city": "Esbjerg", "addr:country": "DK", "addr:housenumber": "5", "addr:municipality": "Esbjerg", "addr:postcode": "6700", "addr:street": "Marievej", "osak:identifier": "0a3f508d-a1ce-32b8-e044-0003ba298018", "source": "Danmarks Adresseregister"}, "geometry": {"type": "Point", "coordinates": [8.462943, 55.480774]}, "id": "node/342343887"}, {"type": "Feature", "properties": {"@id": "node/342370575", "addr:city": "Fan\u00f8", "addr:country": "DK", "addr:housenumber": "6", "addr:municipality": "Fan\u00f8", "addr:place": "Fan\u00f8 Bad", "addr:postcode": "6720", "addr:street": "Kystvejen", "osak:identifier": "0a3f508d-df36-32b8-e044-0003ba298018", "source": "Danmarks Adresseregister"}, "geometry": {"type": "Point", "coordinates": [8.36392, 55.434751]}, "id": "node/342370575"}, {"type": "Feature", "properties": {"@id": "node/342373182", "addr:city": "Fan\u00f8", "addr:country": "DK", "addr:housenumber": "60", "addr:municipality": "Fan\u00f8", "addr:place": "Rindby Strand", "addr:postcode": "6720", "addr:street": "Store Klit", "osak:identifier": "0a3f508d-e5bb-32b8-e044-0003ba298018", "source": "Danmarks Adresseregister"}, "geometry": {"type": "Point", "coordinates": [8.39089, 55.418188]}, "id": "node/342373182"}, {"type": "Feature", "properties": {"@id": "node/342361857", "addr:city": "Esbjerg", "addr:country": "DK", "addr:housenumber": "78", "addr:municipality": "Esbjerg", "addr:postcode": "6700", "addr:street": "Torvegade", "osak:identifier": "0a3f508d-ca1f-32b8-e044-0003ba298018", "source": "Danmarks Adresseregister"}, "geometry": {"type": "Point", "coordinates": [8.454078, 55.472898]}, "id": "node/342361857"}, {"type": "Feature", "properties": {"@id": "node/342337071", "addr:city": "Esbjerg", "addr:country": "DK", "addr:housenumber": "20B", "addr:municipality": "Esbjerg", "addr:postcode": "6700", "addr:street": "H\u00f8jvangs Alle", "osak:identifier": "0a3f508d-8f38-32b8-e044-0003ba298018", "source": "Danmarks Adresseregister"}, "geometry": {"type": "Point", "coordinates": [8.453675, 55.4869]}, "id": "node/342337071"}, {"type": "Feature", "properties": {"@id": "node/342321765", "addr:city": "Esbjerg", "addr:country": "DK", "addr:housenumber": "16", "addr:municipality": "Esbjerg", "addr:postcode": "6700", "addr:street": "Baldursgade", "osak:identifier": "0a3f508d-6974-32b8-e044-0003ba298018", "source": "Danmarks Adresseregister"}, "geometry": {"type": "Point", "coordinates": [8.455015, 55.480102]}, "id": "node/342321765"}, {"type": "Feature", "properties": {"@id": "node/342343081", "addr:city": "Esbjerg", "addr:country": "DK", "addr:housenumber": "8", "addr:municipality": "Esbjerg", "addr:postcode": "6700", "addr:street": "Lyngbyes Alle", "osak:identifier": "0a3f508d-a040-32b8-e044-0003ba298018", "source": "Danmarks Adresseregister"}, "geometry": {"type": "Point", "coordinates": [8.464215, 55.471437]}, "id": "node/342343081"}, {"type": "Feature", "properties": {"@id": "node/342372450", "addr:city": "Fan\u00f8", "addr:country": "DK", "addr:housenumber": "3", "addr:municipality": "Fan\u00f8", "addr:place": "Rindby Strand", "addr:postcode": "6720", "addr:street": "R\u00f8rvej", "osak:identifier": "0a3f508d-e3fe-32b8-e044-0003ba298018", "source": "Danmarks Adresseregister"}, "geometry": {"type": "Point", "coordinates": [8.386775, 55.415073]}, "id": "node/342372450"}, {"type": "Feature", "properties": {"@id": "node/3177816017", "addr:city": "Esbjerg V", "addr:country": "DK", "addr:housenumber": "4A", "addr:municipality": "Esbjerg", "addr:postcode": "6710", "addr:street": "Engg\u00e5rdsvej", "osak:identifier": "365794f6-18cd-45ae-9003-eaa9983245a2", "source": "Danmarks Adresseregister"}, "geometry": {"type": "Point", "coordinates": [8.41882, 55.489155]}, "id": "node/3177816017"}, {"type": "Feature", "properties": {"@id": "node/342355236", "addr:city": "Esbjerg", "addr:country": "DK", "addr:housenumber": "95", "addr:municipality": "Esbjerg", "addr:postcode": "6700", "addr:street": "Spangsbjerghaven", "osak:identifier": "0a3f508d-bb5c-32b8-e044-0003ba298018", "source": "Danmarks Adresseregister"}, "geometry": {"type": "Point", "coordinates": [8.458054, 55.48551]}, "id": "node/342355236"}, {"type": "Feature", "properties": {"@id": "node/342351878", "addr:city": "Esbjerg V", "addr:country": "DK", "addr:housenumber": "48", "addr:municipality": "Esbjerg", "addr:postcode": "6710", "addr:street": "Sjelborgdalen", "osak:identifier": "0a3f508d-b25d-32b8-e044-0003ba298018", "source": "Danmarks Adresseregister"}, "geometry": {"type": "Point", "coordinates": [8.339445, 55.534985]}, "id": "node/342351878"}, {"type": "Feature", "properties": {"@id": "node/929120758", "addr:city": "Esbjerg N", "addr:country": "DK", "addr:housenumber": "18", "addr:municipality": "Esbjerg", "addr:postcode": "6715", "addr:street": "Oddesundvej", "osak:identifier": "0a3f508d-ab1e-32b8-e044-0003ba298018", "source": "Danmarks Adresseregister"}, "geometry": {"type": "Point", "coordinates": [8.459356, 55.516744]}, "id": "node/929120758"}, {"type": "Feature", "properties": {"@id": "node/1431537300", "addr:city": "Esbjerg \u00d8", "addr:country": "DK", "addr:housenumber": "151", "addr:municipality": "Esbjerg", "addr:postcode": "6705", "addr:street": "Spangsbjerg M\u00f8llevej", "osak:identifier": "0a3f508d-ba7b-32b8-e044-0003ba298018", "source": "Danmarks Adresseregister"}, "geometry": {"type": "Point", "coordinates": [8.47054, 55.48651]}, "id": "node/1431537300"}, {"type": "Feature", "properties": {"@id": "node/5582720789", "addr:city": "Esbjerg V", "addr:country": "DK", "addr:housenumber": "48", "addr:municipality": "Esbjerg", "addr:postcode": "6710", "addr:street": "Erisv\u00e6nget", "osak:identifier": "aef5ed9a-6cff-477e-a12e-4f7248eea0f1", "source": "Danmarks Adresseregister"}, "geometry": {"type": "Point", "coordinates": [8.40906, 55.522084]}, "id": "node/5582720789"}, {"type": "Feature", "properties": {"@id": "node/342320915", "addr:city": "Esbjerg \u00d8", "addr:country": "DK", "addr:housenumber": "58", "addr:municipality": "Esbjerg", "addr:postcode": "6705", "addr:street": "Andrup Byvej", "osak:identifier": "0a3f508d-679c-32b8-e044-0003ba298018", "source": "Danmarks Adresseregister"}, "geometry": {"type": "Point", "coordinates": [8.533686, 55.5007]}, "id": "node/342320915"}, {"type": "Feature", "properties": {"@id": "node/1406490520", "addr:city": "Esbjerg V", "addr:country": "DK", "addr:housenumber": "54", "addr:municipality": "Esbjerg", "addr:postcode": "6710", "addr:street": "Neptunvej", "osak:identifier": "0a3f508d-a724-32b8-e044-0003ba298018", "source": "Danmarks Adresseregister"}, "geometry": {"type": "Point", "coordinates": [8.411368, 55.496668]}, "id": "node/1406490520"}, {"type": "Feature", "properties": {"@id": "node/342358101", "addr:city": "Esbjerg V", "addr:country": "DK", "addr:housenumber": "147", "addr:municipality": "Esbjerg", "addr:place": "Hjerting", "addr:postcode": "6710", "addr:street": "Styrmandsv\u00e6nget", "osak:identifier": "0a3f508d-c156-32b8-e044-0003ba298018", "source": "Danmarks Adresseregister"}, "geometry": {"type": "Point", "coordinates": [8.379027, 55.51919]}, "id": "node/342358101"}, {"type": "Feature", "properties": {"@id": "node/1406514229", "addr:city": "Esbjerg V", "addr:country": "DK", "addr:housenumber": "5", "addr:municipality": "Esbjerg", "addr:postcode": "6710", "addr:street": "Ven\u00f8vej", "osak:identifier": "0a3f508d-cf7e-32b8-e044-0003ba298018", "source": "Danmarks Adresseregister"}, "geometry": {"type": "Point", "coordinates": [8.414761, 55.501649]}, "id": "node/1406514229"}, {"type": "Feature", "properties": {"@id": "node/1406486885", "addr:city": "Esbjerg \u00d8", "addr:country": "DK", "addr:housenumber": "69", "addr:municipality": "Esbjerg", "addr:postcode": "6705", "addr:street": "Jagtvej", "osak:identifier": "0a3f508d-924d-32b8-e044-0003ba298018", "source": "Danmarks Adresseregister"}, "geometry": {"type": "Point", "coordinates": [8.478611, 55.483809]}, "id": "node/1406486885"}, {"type": "Feature", "properties": {"@id": "node/342364971", "addr:city": "Esbjerg V", "addr:country": "DK", "addr:housenumber": "10", "addr:municipality": "Esbjerg", "addr:place": "Hjerting", "addr:postcode": "6710", "addr:street": "Vesterv\u00e6nget", "osak:identifier": "0a3f508d-d0d2-32b8-e044-0003ba298018", "source": "Danmarks Adresseregister"}, "geometry": {"type": "Point", "coordinates": [8.35209, 55.525614]}, "id": "node/342364971"}, {"type": "Feature", "properties": {"@id": "node/3177814480", "addr:city": "Esbjerg N", "addr:country": "DK", "addr:housenumber": "149", "addr:municipality": "Esbjerg", "addr:postcode": "6715", "addr:street": "Bryndumdamvej", "osak:identifier": "fbe6919d-1e7d-4db6-a585-98f006beb9c0", "source": "Danmarks Adresseregister"}, "geometry": {"type": "Point", "coordinates": [8.494896, 55.525269]}, "id": "node/3177814480"}, {"type": "Feature", "properties": {"@id": "node/342337265", "addr:city": "Esbjerg V", "addr:country": "DK", "addr:housenumber": "12", "addr:municipality": "Esbjerg", "addr:place": "Hjerting", "addr:postcode": "6710", "addr:street": "Idr\u00e6ts Alle", "osak:identifier": "0a3f508d-8fc5-32b8-e044-0003ba298018", "source": "Danmarks Adresseregister"}, "geometry": {"type": "Point", "coordinates": [8.363516, 55.52033]}, "id": "node/342337265"}, {"type": "Feature", "properties": {"@id": "node/342353313", "addr:city": "Esbjerg V", "addr:country": "DK", "addr:housenumber": "18", "addr:municipality": "Esbjerg", "addr:place": "Hjerting", "addr:postcode": "6710", "addr:street": "Skyttev\u00e6nget", "osak:identifier": "0a3f508d-b717-32b8-e044-0003ba298018", "source": "Danmarks Adresseregister"}, "geometry": {"type": "Point", "coordinates": [8.369552, 55.52118]}, "id": "node/342353313"}, {"type": "Feature", "properties": {"@id": "node/1406454107", "addr:city": "Esbjerg N", "addr:country": "DK", "addr:housenumber": "19", "addr:municipality": "Esbjerg", "addr:postcode": "6715", "addr:street": "Egedesmindevej", "osak:identifier": "0a3f508d-730c-32b8-e044-0003ba298018", "source": "Danmarks Adresseregister"}, "geometry": {"type": "Point", "coordinates": [8.450958, 55.514536]}, "id": "node/1406454107"}, {"type": "Feature", "properties": {"@id": "node/1406465289", "addr:city": "Esbjerg \u00d8", "addr:country": "DK", "addr:housenumber": "77", "addr:municipality": "Esbjerg", "addr:postcode": "6705", "addr:street": "Granlunden", "osak:identifier": "0a3f508d-813f-32b8-e044-0003ba298018", "source": "Danmarks Adresseregister"}, "geometry": {"type": "Point", "coordinates": [8.487772, 55.497795]}, "id": "node/1406465289"}, {"type": "Feature", "properties": {"@id": "node/1431080520", "addr:city": "Esbjerg", "addr:country": "DK", "addr:housenumber": "69", "addr:municipality": "Esbjerg", "addr:postcode": "6700", "addr:street": "Stormgade", "osak:identifier": "0a3f508d-bf80-32b8-e044-0003ba298018", "source": "Danmarks Adresseregister"}, "geometry": {"type": "Point", "coordinates": [8.445816, 55.473015]}, "id": "node/1431080520"}, {"type": "Feature", "properties": {"@id": "node/342375407", "addr:city": "Fan\u00f8", "addr:country": "DK", "addr:housenumber": "49", "addr:municipality": "Fan\u00f8", "addr:place": "Nordby", "addr:postcode": "6720", "addr:street": "Vestervejen", "osak:identifier": "0a3f508d-eac4-32b8-e044-0003ba298018", "source": "Danmarks Adresseregister"}, "geometry": {"type": "Point", "coordinates": [8.398527, 55.443217]}, "id": "node/342375407"}, {"type": "Feature", "properties": {"@id": "node/929113257", "addr:city": "Esbjerg V", "addr:country": "DK", "addr:housenumber": "81", "addr:municipality": "Esbjerg", "addr:place": "Guldager", "addr:postcode": "6710", "addr:street": "Jacob S\u00f8rensens Vej", "osak:identifier": "0a3f508d-91fc-32b8-e044-0003ba298018", "source": "Danmarks Adresseregister"}, "geometry": {"type": "Point", "coordinates": [8.409443, 55.532898]}, "id": "node/929113257"}, {"type": "Feature", "properties": {"@id": "node/342325673", "addr:city": "Esbjerg N", "addr:country": "DK", "addr:housenumber": "8", "addr:municipality": "Esbjerg", "addr:postcode": "6715", "addr:street": "Egevangen", "osak:identifier": "0a3f508d-73be-32b8-e044-0003ba298018", "source": "Danmarks Adresseregister"}, "geometry": {"type": "Point", "coordinates": [8.435193, 55.504487]}, "id": "node/342325673"}, {"type": "Feature", "properties": {"@id": "node/342347390", "addr:city": "Esbjerg \u00d8", "addr:country": "DK", "addr:housenumber": "4", "addr:municipality": "Esbjerg", "addr:postcode": "6705", "addr:street": "Novrupvej", "osak:identifier": "0a3f508d-a8d8-32b8-e044-0003ba298018", "source": "Danmarks Adresseregister"}, "geometry": {"type": "Point", "coordinates": [8.494166, 55.477779]}, "id": "node/342347390"}, {"type": "Feature", "properties": {"@id": "node/1373622014", "addr:city": "Esbjerg N", "addr:country": "DK", "addr:housenumber": "64", "addr:municipality": "Esbjerg", "addr:postcode": "6715", "addr:street": "Lilleb\u00e6ltsvej", "osak:identifier": "0a3f508d-9e64-32b8-e044-0003ba298018", "source": "Danmarks Adresseregister"}, "geometry": {"type": "Point", "coordinates": [8.465929, 55.504479]}, "id": "node/1373622014"}, {"type": "Feature", "properties": {"@id": "node/342332117", "addr:city": "Esbjerg N", "addr:country": "DK", "addr:housenumber": "68A", "addr:municipality": "Esbjerg", "addr:postcode": "6715", "addr:street": "Gr\u00f8nlandsparken", "osak:identifier": "0a3f508d-82d3-32b8-e044-0003ba298018", "source": "Danmarks Adresseregister"}, "geometry": {"type": "Point", "coordinates": [8.431174, 55.509995]}, "id": "node/342332117"}, {"type": "Feature", "properties": {"@id": "node/342350953", "addr:city": "Esbjerg V", "addr:country": "DK", "addr:housenumber": "17", "addr:municipality": "Esbjerg", "addr:postcode": "6710", "addr:street": "Rolighedsvej", "osak:identifier": "0a3f508d-b01c-32b8-e044-0003ba298018", "source": "Danmarks Adresseregister"}, "geometry": {"type": "Point", "coordinates": [8.406046, 55.492962]}, "id": "node/342350953"}, {"type": "Feature", "properties": {"@id": "node/342356797", "addr:city": "Esbjerg \u00d8", "addr:country": "DK", "addr:housenumber": "213", "addr:municipality": "Esbjerg", "addr:postcode": "6705", "addr:street": "Storegade", "osak:identifier": "0a3f508d-bf29-32b8-e044-0003ba298018", "source": "Danmarks Adresseregister"}, "geometry": {"type": "Point", "coordinates": [8.488674, 55.477503]}, "id": "node/342356797"}, {"type": "Feature", "properties": {"@id": "node/760846741", "addr:city": "Esbjerg V", "addr:country": "DK", "addr:housenumber": "65", "addr:municipality": "Esbjerg", "addr:place": "Guldager", "addr:postcode": "6710", "addr:street": "N\u00f8rlundvej", "osak:identifier": "0a3f508d-aa04-32b8-e044-0003ba298018", "source": "Danmarks Adresseregister"}, "geometry": {"type": "Point", "coordinates": [8.406987, 55.528244]}, "id": "node/760846741"}, {"type": "Feature", "properties": {"@id": "node/342369847", "addr:city": "Fan\u00f8", "addr:country": "DK", "addr:housenumber": "20D", "addr:municipality": "Fan\u00f8", "addr:place": "Nordby", "addr:postcode": "6720", "addr:street": "Kallesbjergvej", "osak:identifier": "0a3f508d-dda7-32b8-e044-0003ba298018", "source": "Danmarks Adresseregister"}, "geometry": {"type": "Point", "coordinates": [8.392584, 55.444232]}, "id": "node/342369847"}, {"type": "Feature", "properties": {"@id": "node/1406465998", "addr:city": "Esbjerg", "addr:country": "DK", "addr:housenumber": "41C", "addr:municipality": "Esbjerg", "addr:postcode": "6700", "addr:street": "Grundtvigs Alle", "osak:identifier": "0a3f508d-820c-32b8-e044-0003ba298018", "source": "Danmarks Adresseregister"}, "geometry": {"type": "Point", "coordinates": [8.472879, 55.466594]}, "id": "node/1406465998"}, {"type": "Feature", "properties": {"@id": "node/342328672", "addr:city": "Esbjerg V", "addr:country": "DK", "addr:housenumber": "2", "addr:municipality": "Esbjerg", "addr:place": "Hjerting", "addr:postcode": "6710", "addr:street": "Fyrmesterv\u00e6nget", "osak:identifier": "0a3f508d-7b66-32b8-e044-0003ba298018", "source": "Danmarks Adresseregister"}, "geometry": {"type": "Point", "coordinates": [8.373939, 55.52744]}, "id": "node/342328672"}, {"type": "Feature", "properties": {"@id": "node/3037441633", "addr:city": "Esbjerg", "addr:country": "DK", "addr:housenumber": "4", "addr:municipality": "Esbjerg", "addr:postcode": "6700", "addr:street": "Siriusvej", "osak:identifier": "b1b8c1d0-ca4d-4bba-8438-d84c8b15eb67", "source": "Danmarks Adresseregister"}, "geometry": {"type": "Point", "coordinates": [8.472503, 55.455076]}, "id": "node/3037441633"}, {"type": "Feature", "properties": {"@id": "node/1406520291", "addr:city": "Esbjerg V", "addr:country": "DK", "addr:housenumber": "4A", "addr:municipality": "Esbjerg", "addr:postcode": "6710", "addr:street": "\u00c5dalen", "osak:identifier": "0a3f508d-d526-32b8-e044-0003ba298018", "source": "Danmarks Adresseregister"}, "geometry": {"type": "Point", "coordinates": [8.383468, 55.507]}, "id": "node/1406520291"}, {"type": "Feature", "properties": {"@id": "node/1406487796", "addr:city": "Esbjerg", "addr:country": "DK", "addr:housenumber": "24", "addr:municipality": "Esbjerg", "addr:postcode": "6700", "addr:street": "Islandsgade", "osak:identifier": "0a3f508d-913d-32b8-e044-0003ba298018", "source": "Danmarks Adresseregister"}, "geometry": {"type": "Point", "coordinates": [8.445269, 55.468352]}, "id": "node/1406487796"}, {"type": "Feature", "properties": {"@id": "node/1406512478", "addr:city": "Esbjerg N", "addr:country": "DK", "addr:housenumber": "280", "addr:municipality": "Esbjerg", "addr:postcode": "6715", "addr:street": "Umanakparken", "osak:identifier": "0a3f508d-cd8f-32b8-e044-0003ba298018", "source": "Danmarks Adresseregister"}, "geometry": {"type": "Point", "coordinates": [8.443901, 55.522161]}, "id": "node/1406512478"}, {"type": "Feature", "properties": {"@id": "node/342360311", "addr:city": "Esbjerg V", "addr:country": "DK", "addr:housenumber": "25", "addr:municipality": "Esbjerg", "addr:postcode": "6710", "addr:street": "S\u00f8ndre Fovrfeldvej", "osak:identifier": "0a3f508d-c5d2-32b8-e044-0003ba298018", "source": "Danmarks Adresseregister"}, "geometry": {"type": "Point", "coordinates": [8.418823, 55.497554]}, "id": "node/342360311"}, {"type": "Feature", "properties": {"@id": "node/342334360", "addr:city": "Esbjerg N", "addr:country": "DK", "addr:housenumber": "15", "addr:municipality": "Esbjerg", "addr:postcode": "6715", "addr:street": "Hans Egedes Vej", "osak:identifier": "0a3f508d-8745-32b8-e044-0003ba298018", "source": "Danmarks Adresseregister"}, "geometry": {"type": "Point", "coordinates": [8.433219, 55.507751]}, "id": "node/342334360"}, {"type": "Feature", "properties": {"@id": "node/342346107", "addr:city": "Esbjerg V", "addr:country": "DK", "addr:housenumber": "8", "addr:municipality": "Esbjerg", "addr:place": "Hjerting", "addr:postcode": "6710", "addr:street": "M\u00e5gev\u00e6nget", "osak:identifier": "0a3f508d-a688-32b8-e044-0003ba298018", "source": "Danmarks Adresseregister"}, "geometry": {"type": "Point", "coordinates": [8.346566, 55.530485]}, "id": "node/342346107"}, {"type": "Feature", "properties": {"@id": "node/342364408", "addr:city": "Esbjerg V", "addr:country": "DK", "addr:housenumber": "13", "addr:municipality": "Esbjerg", "addr:postcode": "6710", "addr:street": "Venusv\u00e6nget", "osak:identifier": "0a3f508d-cf1d-32b8-e044-0003ba298018", "source": "Danmarks Adresseregister"}, "geometry": {"type": "Point", "coordinates": [8.418021, 55.514873]}, "id": "node/342364408"}, {"type": "Feature", "properties": {"@id": "node/342351310", "addr:city": "Esbjerg N", "addr:country": "DK", "addr:housenumber": "4", "addr:municipality": "Esbjerg", "addr:postcode": "6715", "addr:street": "R\u00f8nneb\u00e6rstien", "osak:identifier": "0a3f508d-b0bf-32b8-e044-0003ba298018", "source": "Danmarks Adresseregister"}, "geometry": {"type": "Point", "coordinates": [8.45928, 55.497693]}, "id": "node/342351310"}, {"type": "Feature", "properties": {"@id": "node/342368374", "addr:city": "Fan\u00f8", "addr:country": "DK", "addr:housenumber": "18", "addr:municipality": "Fan\u00f8", "addr:place": "Nordby", "addr:postcode": "6720", "addr:street": "Bavnebjerg", "osak:identifier": "0a3f508d-d94c-32b8-e044-0003ba298018", "source": "Danmarks Adresseregister"}, "geometry": {"type": "Point", "coordinates": [8.391996, 55.441666]}, "id": "node/342368374"}, {"type": "Feature", "properties": {"@id": "node/342339831", "addr:city": "Esbjerg", "addr:country": "DK", "addr:housenumber": "5", "addr:municipality": "Esbjerg", "addr:postcode": "6700", "addr:street": "Koldingvej", "osak:identifier": "0a3f508d-982d-32b8-e044-0003ba298018", "source": "Danmarks Adresseregister"}, "geometry": {"type": "Point", "coordinates": [8.498131, 55.465953]}, "id": "node/342339831"}, {"type": "Feature", "properties": {"@id": "node/342365783", "addr:city": "Esbjerg \u00d8", "addr:country": "DK", "addr:housenumber": "18", "addr:municipality": "Esbjerg", "addr:postcode": "6705", "addr:street": "\u00c6girs Alle", "osak:identifier": "0a3f508d-d347-32b8-e044-0003ba298018", "source": "Danmarks Adresseregister"}, "geometry": {"type": "Point", "coordinates": [8.472884, 55.481429]}, "id": "node/342365783"}, {"type": "Feature", "properties": {"@id": "node/342345783", "addr:city": "Esbjerg \u00d8", "addr:country": "DK", "addr:housenumber": "26", "addr:municipality": "Esbjerg", "addr:postcode": "6705", "addr:street": "M\u00f8lh\u00f8jvej", "osak:identifier": "0a3f508d-a5a4-32b8-e044-0003ba298018", "source": "Danmarks Adresseregister"}, "geometry": {"type": "Point", "coordinates": [8.529358, 55.504377]}, "id": "node/342345783"}, {"type": "Feature", "properties": {"@id": "node/929113675", "addr:city": "Esbjerg V", "addr:country": "DK", "addr:housenumber": "15", "addr:municipality": "Esbjerg", "addr:postcode": "6710", "addr:street": "Guldagerg\u00e5rdsvej", "osak:identifier": "4591b5f9-aaeb-0dd9-e044-0003ba298018", "source": "Danmarks Adresseregister"}, "geometry": {"type": "Point", "coordinates": [8.408278, 55.527962]}, "id": "node/929113675"}, {"type": "Feature", "properties": {"@id": "node/342368957", "addr:city": "Fan\u00f8", "addr:country": "DK", "addr:housenumber": "5C", "addr:municipality": "Fan\u00f8", "addr:place": "Fan\u00f8 Bad", "addr:postcode": "6720", "addr:street": "Golfstien", "osak:identifier": "0a3f508d-db3d-32b8-e044-0003ba298018", "source": "Danmarks Adresseregister"}, "geometry": {"type": "Point", "coordinates": [8.368222, 55.435613]}, "id": "node/342368957"}, {"type": "Feature", "properties": {"@id": "node/342325321", "addr:city": "Esbjerg V", "addr:country": "DK", "addr:housenumber": "28L", "addr:municipality": "Esbjerg", "addr:postcode": "6710", "addr:street": "Ege Alle", "osak:identifier": "0a3f508d-72df-32b8-e044-0003ba298018", "source": "Danmarks Adresseregister"}, "geometry": {"type": "Point", "coordinates": [8.420048, 55.494985]}, "id": "node/342325321"}, {"type": "Feature", "properties": {"@id": "node/342323017", "addr:city": "Esbjerg V", "addr:country": "DK", "addr:housenumber": "23", "addr:municipality": "Esbjerg", "addr:postcode": "6710", "addr:street": "Borgerv\u00e6nget", "osak:identifier": "0a3f508d-6c3f-32b8-e044-0003ba298018", "source": "Danmarks Adresseregister"}, "geometry": {"type": "Point", "coordinates": [8.406566, 55.495393]}, "id": "node/342323017"}, {"type": "Feature", "properties": {"@id": "node/342338985", "addr:city": "Esbjerg", "addr:country": "DK", "addr:housenumber": "8", "addr:municipality": "Esbjerg", "addr:postcode": "6700", "addr:street": "J\u00f8rgen Pedersens Vej", "osak:identifier": "0a3f508d-9527-32b8-e044-0003ba298018", "source": "Danmarks Adresseregister"}, "geometry": {"type": "Point", "coordinates": [8.435858, 55.475536]}, "id": "node/342338985"}, {"type": "Feature", "properties": {"@id": "node/342375329", "addr:city": "Fan\u00f8", "addr:country": "DK", "addr:housenumber": "46", "addr:municipality": "Fan\u00f8", "addr:postcode": "6720", "addr:street": "Vestertoft", "osak:identifier": "0a3f508d-ea91-32b8-e044-0003ba298018", "source": "Danmarks Adresseregister"}, "geometry": {"type": "Point", "coordinates": [8.387691, 55.432002]}, "id": "node/342375329"}, {"type": "Feature", "properties": {"@id": "node/342344389", "addr:city": "Esbjerg \u00d8", "addr:country": "DK", "addr:housenumber": "46", "addr:municipality": "Esbjerg", "addr:place": "Andrup", "addr:postcode": "6705", "addr:street": "Martsvej", "osak:identifier": "0a3f508d-a293-32b8-e044-0003ba298018", "source": "Danmarks Adresseregister"}, "geometry": {"type": "Point", "coordinates": [8.533887, 55.497101]}, "id": "node/342344389"}, {"type": "Feature", "properties": {"@id": "node/1406510083", "addr:city": "Esbjerg N", "addr:country": "DK", "addr:housenumber": "63", "addr:municipality": "Esbjerg", "addr:postcode": "6715", "addr:street": "Tarp Byvej", "osak:identifier": "0a3f508d-c6bc-32b8-e044-0003ba298018", "source": "Danmarks Adresseregister"}, "geometry": {"type": "Point", "coordinates": [8.463647, 55.525145]}, "id": "node/1406510083"}, {"type": "Feature", "properties": {"@id": "node/1406507063", "addr:city": "Esbjerg \u00d8", "addr:country": "DK", "addr:housenumber": "110", "addr:municipality": "Esbjerg", "addr:postcode": "6705", "addr:street": "Steng\u00e6rdet", "osak:identifier": "0a3f508d-bcf1-32b8-e044-0003ba298018", "source": "Danmarks Adresseregister"}, "geometry": {"type": "Point", "coordinates": [8.494365, 55.484925]}, "id": "node/1406507063"}, {"type": "Feature", "properties": {"@id": "node/342356403", "addr:city": "Esbjerg N", "addr:country": "DK", "addr:housenumber": "11", "addr:municipality": "Esbjerg", "addr:postcode": "6715", "addr:street": "Stig\u00e5rdsvej", "osak:identifier": "0a3f508d-be58-32b8-e044-0003ba298018", "source": "Danmarks Adresseregister"}, "geometry": {"type": "Point", "coordinates": [8.452306, 55.503143]}, "id": "node/342356403"}, {"type": "Feature", "properties": {"@id": "node/342325278", "addr:city": "Esbjerg \u00d8", "addr:country": "DK", "addr:housenumber": "3", "addr:municipality": "Esbjerg", "addr:place": "Andrup", "addr:postcode": "6705", "addr:street": "Efter\u00e5rsvej", "osak:identifier": "0a3f508d-72b5-32b8-e044-0003ba298018", "source": "Danmarks Adresseregister"}, "geometry": {"type": "Point", "coordinates": [8.540862, 55.498989]}, "id": "node/342325278"}, {"type": "Feature", "properties": {"@id": "node/1406478852", "addr:city": "Esbjerg \u00d8", "addr:country": "DK", "addr:housenumber": "52", "addr:municipality": "Esbjerg", "addr:postcode": "6705", "addr:street": "Lindelunden", "osak:identifier": "0a3f508d-9ec7-32b8-e044-0003ba298018", "source": "Danmarks Adresseregister"}, "geometry": {"type": "Point", "coordinates": [8.480816, 55.496452]}, "id": "node/1406478852"}, {"type": "Feature", "properties": {"@id": "node/342371837", "addr:city": "Fan\u00f8", "addr:country": "DK", "addr:housenumber": "17", "addr:municipality": "Fan\u00f8", "addr:place": "Fan\u00f8 Bad", "addr:postcode": "6720", "addr:street": "Nonboevej", "osak:identifier": "0a3f508d-e1de-32b8-e044-0003ba298018", "source": "Danmarks Adresseregister"}, "geometry": {"type": "Point", "coordinates": [8.373069, 55.433321]}, "id": "node/342371837"}, {"type": "Feature", "properties": {"@id": "node/342325848", "addr:city": "Esbjerg", "addr:country": "DK", "addr:housenumber": "1", "addr:municipality": "Esbjerg", "addr:postcode": "6700", "addr:street": "Energivej", "osak:identifier": "0a3f508d-7460-32b8-e044-0003ba298018", "source": "Danmarks Adresseregister"}, "geometry": {"type": "Point", "coordinates": [8.497094, 55.465112]}, "id": "node/342325848"}, {"type": "Feature", "properties": {"@id": "node/342335829", "addr:city": "Esbjerg V", "addr:country": "DK", "addr:housenumber": "108", "addr:municipality": "Esbjerg", "addr:postcode": "6710", "addr:street": "Hjertingparken", "osak:identifier": "0a3f508d-8b97-32b8-e044-0003ba298018", "source": "Danmarks Adresseregister"}, "geometry": {"type": "Point", "coordinates": [8.36525, 55.531239]}, "id": "node/342335829"}, {"type": "Feature", "properties": {"@id": "node/342329131", "addr:city": "Esbjerg V", "addr:country": "DK", "addr:housenumber": "312", "addr:municipality": "Esbjerg", "addr:postcode": "6710", "addr:street": "Fyrparken", "osak:identifier": "0a3f508d-7c28-32b8-e044-0003ba298018", "source": "Danmarks Adresseregister"}, "geometry": {"type": "Point", "coordinates": [8.399308, 55.501188]}, "id": "node/342329131"}, {"type": "Feature", "properties": {"@id": "node/1406500973", "addr:city": "Esbjerg N", "addr:country": "DK", "addr:housenumber": "56", "addr:municipality": "Esbjerg", "addr:postcode": "6715", "addr:street": "Skovbakken", "osak:identifier": "0a3f508d-b5be-32b8-e044-0003ba298018", "source": "Danmarks Adresseregister"}, "geometry": {"type": "Point", "coordinates": [8.446214, 55.504978]}, "id": "node/1406500973"}, {"type": "Feature", "properties": {"@id": "node/1431537449", "addr:city": "Esbjerg \u00d8", "addr:country": "DK", "addr:housenumber": "122", "addr:municipality": "Esbjerg", "addr:postcode": "6705", "addr:street": "Strandby Kirkevej", "osak:identifier": "0a3f508d-bfe3-32b8-e044-0003ba298018", "source": "Danmarks Adresseregister"}, "geometry": {"type": "Point", "coordinates": [8.474042, 55.479366]}, "id": "node/1431537449"}, {"type": "Feature", "properties": {"@id": "node/342323629", "addr:city": "Esbjerg V", "addr:country": "DK", "addr:housenumber": "4", "addr:municipality": "Esbjerg", "addr:postcode": "6710", "addr:street": "Buntmagertoften", "osak:identifier": "0a3f508d-6df5-32b8-e044-0003ba298018", "source": "Danmarks Adresseregister"}, "geometry": {"type": "Point", "coordinates": [8.424965, 55.492788]}, "id": "node/342323629"}, {"type": "Feature", "properties": {"@id": "node/342369715", "addr:city": "Fan\u00f8", "addr:country": "DK", "addr:housenumber": "9", "addr:municipality": "Fan\u00f8", "addr:place": "Rindby Strand", "addr:postcode": "6720", "addr:street": "Hympelvej", "osak:identifier": "0a3f508d-dd58-32b8-e044-0003ba298018", "source": "Danmarks Adresseregister"}, "geometry": {"type": "Point", "coordinates": [8.378324, 55.422515]}, "id": "node/342369715"},